{
 "version": 1,
 "source": "Natural Earth 10m populated_places, filtered to bbox + POP_MAX ≥ 50000",
 "bbox_epsg3857": [
  -1500000.0,
  4250000.0,
  4000000.0,
  9750000.0
 ],
 "min_population": 50000,
 "count": 683,
 "cities": [
  {
   "name": "Istanbul",
   "country": "Turkey",
   "lat": 41.106942,
   "lng": 29.008056,
   "merc_x": 3229162.0,
   "merc_y": 5028128.4,
   "world_x_km": 1979.162,
   "world_z_km": -1971.872,
   "modern_population": 10061000
  },
  {
   "name": "Paris",
   "country": "France",
   "lat": 48.868639,
   "lng": 2.33139,
   "merc_x": 259529.1,
   "merc_y": 6252601.5,
   "world_x_km": -990.471,
   "world_z_km": -747.398,
   "modern_population": 9904000
  },
  {
   "name": "London",
   "country": "United Kingdom",
   "lat": 51.501941,
   "lng": -0.118668,
   "merc_x": -13210.1,
   "merc_y": 6710566.2,
   "world_x_km": -1263.21,
   "world_z_km": -289.434,
   "modern_population": 8567000
  },
  {
   "name": "Madrid",
   "country": "Spain",
   "lat": 40.401972,
   "lng": -3.685298,
   "merc_x": -410245.5,
   "merc_y": 4924528.9,
   "world_x_km": -1660.245,
   "world_z_km": -2075.471,
   "modern_population": 5567000
  },
  {
   "name": "Barcelona",
   "country": "Spain",
   "lat": 41.385245,
   "lng": 2.181425,
   "merc_x": 242835.1,
   "merc_y": 5069332.4,
   "world_x_km": -1007.165,
   "world_z_km": -1930.668,
   "modern_population": 4920000
  },
  {
   "name": "St.  Petersburg",
   "country": "Russia",
   "lat": 59.94096,
   "lng": 30.314074,
   "merc_x": 3374547.3,
   "merc_y": 8386605.0,
   "world_x_km": 2124.547,
   "world_z_km": 1386.605,
   "modern_population": 4553000
  },
  {
   "name": "Ankara",
   "country": "Turkey",
   "lat": 39.929184,
   "lng": 32.862446,
   "merc_x": 3658230.8,
   "merc_y": 4855656.8,
   "world_x_km": 2408.231,
   "world_z_km": -2144.343,
   "modern_population": 3716000
  },
  {
   "name": "Berlin",
   "country": "Germany",
   "lat": 52.523765,
   "lng": 13.399603,
   "merc_x": 1491637.0,
   "merc_y": 6895388.6,
   "world_x_km": 241.637,
   "world_z_km": -104.611,
   "modern_population": 3406000
  },
  {
   "name": "Algiers",
   "country": "Algeria",
   "lat": 36.765011,
   "lng": 3.048607,
   "merc_x": 339369.4,
   "merc_y": 4406402.8,
   "world_x_km": -910.631,
   "world_z_km": -2593.597,
   "modern_population": 3354000
  },
  {
   "name": "Rome",
   "country": "Italy",
   "lat": 41.897902,
   "lng": 12.481313,
   "merc_x": 1389413.4,
   "merc_y": 5145697.9,
   "world_x_km": 139.413,
   "world_z_km": -1854.302,
   "modern_population": 3339000
  },
  {
   "name": "Athens",
   "country": "Greece",
   "lat": 37.985272,
   "lng": 23.731375,
   "merc_x": 2641764.6,
   "merc_y": 4577345.4,
   "world_x_km": 1391.765,
   "world_z_km": -2422.655,
   "modern_population": 3242000
  },
  {
   "name": "Milan",
   "country": "Italy",
   "lat": 45.471921,
   "lng": 9.203063,
   "merc_x": 1024480.3,
   "merc_y": 5696124.3,
   "world_x_km": -225.52,
   "world_z_km": -1303.876,
   "modern_population": 2945000
  },
  {
   "name": "Stuttgart",
   "country": "Germany",
   "lat": 48.77998,
   "lng": 9.199996,
   "merc_x": 1024138.9,
   "merc_y": 6237610.7,
   "world_x_km": -225.861,
   "world_z_km": -762.389,
   "modern_population": 2944700
  },
  {
   "name": "Frankfurt",
   "country": "Germany",
   "lat": 50.099977,
   "lng": 8.675015,
   "merc_x": 965698.3,
   "merc_y": 6463608.1,
   "world_x_km": -284.302,
   "world_z_km": -536.392,
   "modern_population": 2895000
  },
  {
   "name": "Lisbon",
   "country": "Portugal",
   "lat": 38.724669,
   "lng": -9.146812,
   "merc_x": -1018218.5,
   "merc_y": 4682309.2,
   "world_x_km": -2268.218,
   "world_z_km": -2317.691,
   "modern_population": 2812000
  },
  {
   "name": "Katowice",
   "country": "Poland",
   "lat": 50.260381,
   "lng": 19.020017,
   "merc_x": 2117298.6,
   "merc_y": 6491492.0,
   "world_x_km": 867.299,
   "world_z_km": -508.508,
   "modern_population": 2746000
  },
  {
   "name": "Kyiv",
   "country": "Ukraine",
   "lat": 50.435313,
   "lng": 30.514682,
   "merc_x": 3396878.9,
   "merc_y": 6522008.5,
   "world_x_km": 2146.879,
   "world_z_km": -477.992,
   "modern_population": 2709000
  },
  {
   "name": "İzmir",
   "country": "Turkey",
   "lat": 38.438096,
   "lng": 27.149848,
   "merc_x": 3022307.3,
   "merc_y": 4641500.3,
   "world_x_km": 1772.307,
   "world_z_km": -2358.5,
   "modern_population": 2587000
  },
  {
   "name": "Tunis",
   "country": "Tunisia",
   "lat": 36.802778,
   "lng": 10.179678,
   "merc_x": 1133196.6,
   "merc_y": 4411652.1,
   "world_x_km": -116.803,
   "world_z_km": -2588.348,
   "modern_population": 2412500
  },
  {
   "name": "Vienna",
   "country": "Austria",
   "lat": 48.201961,
   "lng": 16.364693,
   "merc_x": 1821709.3,
   "merc_y": 6140520.0,
   "world_x_km": 571.709,
   "world_z_km": -859.48,
   "modern_population": 2400000
  },
  {
   "name": "Mannheim",
   "country": "Germany",
   "lat": 49.500375,
   "lng": 8.470015,
   "merc_x": 942877.8,
   "merc_y": 6360195.0,
   "world_x_km": -307.122,
   "world_z_km": -639.805,
   "modern_population": 2362000
  },
  {
   "name": "Birmingham",
   "country": "United Kingdom",
   "lat": 52.47692,
   "lng": -1.921943,
   "merc_x": -213949.7,
   "merc_y": 6886822.4,
   "world_x_km": -1463.95,
   "world_z_km": -113.178,
   "modern_population": 2285000
  },
  {
   "name": "Naples",
   "country": "Italy",
   "lat": 40.841971,
   "lng": 14.243066,
   "merc_x": 1585530.9,
   "merc_y": 4989060.3,
   "world_x_km": 335.531,
   "world_z_km": -2010.94,
   "modern_population": 2250000
  },
  {
   "name": "Manchester",
   "country": "United Kingdom",
   "lat": 53.502361,
   "lng": -2.249933,
   "merc_x": -250461.4,
   "merc_y": 7076467.1,
   "world_x_km": -1500.461,
   "world_z_km": 76.467,
   "modern_population": 2230000
  },
  {
   "name": "Bucharest",
   "country": "Romania",
   "lat": 44.435318,
   "lng": 26.098001,
   "merc_x": 2905216.2,
   "merc_y": 5533057.7,
   "world_x_km": 1655.216,
   "world_z_km": -1466.942,
   "modern_population": 1942000
  },
  {
   "name": "Minsk",
   "country": "Belarus",
   "lat": 53.901923,
   "lng": 27.564681,
   "merc_x": 3068486.3,
   "merc_y": 7151603.5,
   "world_x_km": 1818.486,
   "world_z_km": 151.604,
   "modern_population": 1805000
  },
  {
   "name": "Hamburg",
   "country": "Germany",
   "lat": 53.551971,
   "lng": 9.998053,
   "merc_x": 1112978.2,
   "merc_y": 7085757.5,
   "world_x_km": -137.022,
   "world_z_km": 85.757,
   "modern_population": 1757000
  },
  {
   "name": "Brussels",
   "country": "Belgium",
   "lat": 50.835263,
   "lng": 4.331371,
   "merc_x": 482166.0,
   "merc_y": 6592205.2,
   "world_x_km": -767.834,
   "world_z_km": -407.795,
   "modern_population": 1743000
  },
  {
   "name": "Essen",
   "country": "Germany",
   "lat": 51.449998,
   "lng": 7.016615,
   "merc_x": 781086.0,
   "merc_y": 6701282.5,
   "world_x_km": -468.914,
   "world_z_km": -298.717,
   "modern_population": 1742135
  },
  {
   "name": "Warsaw",
   "country": "Poland",
   "lat": 52.251947,
   "lng": 20.998054,
   "merc_x": 2337492.7,
   "merc_y": 6845809.5,
   "world_x_km": 1087.493,
   "world_z_km": -154.19,
   "modern_population": 1707000
  },
  {
   "name": "Budapest",
   "country": "Hungary",
   "lat": 47.501952,
   "lng": 19.081375,
   "merc_x": 2124128.9,
   "merc_y": 6024393.8,
   "world_x_km": 874.129,
   "world_z_km": -975.606,
   "modern_population": 1679000
  },
  {
   "name": "Turin",
   "country": "Italy",
   "lat": 45.072333,
   "lng": 7.668015,
   "merc_x": 853599.5,
   "merc_y": 5632916.0,
   "world_x_km": -396.4,
   "world_z_km": -1367.084,
   "modern_population": 1652000
  },
  {
   "name": "Leeds",
   "country": "United Kingdom",
   "lat": 53.831953,
   "lng": -1.581963,
   "merc_x": -176103.3,
   "merc_y": 7138394.2,
   "world_x_km": -1426.103,
   "world_z_km": 138.394,
   "modern_population": 1529000
  },
  {
   "name": "Florence",
   "country": "Italy",
   "lat": 43.780001,
   "lng": 11.25,
   "merc_x": 1252344.3,
   "merc_y": 5431459.7,
   "world_x_km": 2.344,
   "world_z_km": -1568.54,
   "modern_population": 1500000
  },
  {
   "name": "Bursa",
   "country": "Turkey",
   "lat": 40.201933,
   "lng": 29.068052,
   "merc_x": 3235840.7,
   "merc_y": 4895330.2,
   "world_x_km": 1985.841,
   "world_z_km": -2104.67,
   "modern_population": 1492000
  },
  {
   "name": "Lyon",
   "country": "France",
   "lat": 45.771954,
   "lng": 4.828085,
   "merc_x": 537460.0,
   "merc_y": 5743879.7,
   "world_x_km": -712.54,
   "world_z_km": -1256.12,
   "modern_population": 1423000
  },
  {
   "name": "The Hague",
   "country": "Netherlands",
   "lat": 52.080037,
   "lng": 4.269961,
   "merc_x": 475329.9,
   "merc_y": 6814610.1,
   "world_x_km": -774.67,
   "world_z_km": -185.39,
   "modern_population": 1406000
  },
  {
   "name": "Marseille",
   "country": "France",
   "lat": 43.291925,
   "lng": 5.373064,
   "merc_x": 598126.7,
   "merc_y": 5356511.9,
   "world_x_km": -651.873,
   "world_z_km": -1643.488,
   "modern_population": 1400000
  },
  {
   "name": "Porto",
   "country": "Portugal",
   "lat": 41.151952,
   "lng": -8.621947,
   "merc_x": -959790.7,
   "merc_y": 5034780.5,
   "world_x_km": -2209.791,
   "world_z_km": -1965.22,
   "modern_population": 1337000
  },
  {
   "name": "Adana",
   "country": "Turkey",
   "lat": 36.996935,
   "lng": 35.318058,
   "merc_x": 3931588.2,
   "merc_y": 4438679.6,
   "world_x_km": 2681.588,
   "world_z_km": -2561.32,
   "modern_population": 1293000
  },
  {
   "name": "Sheffield",
   "country": "United Kingdom",
   "lat": 53.366677,
   "lng": -1.499997,
   "merc_x": -166978.9,
   "merc_y": 7051113.4,
   "world_x_km": -1416.979,
   "world_z_km": 51.113,
   "modern_population": 1292900
  },
  {
   "name": "Duisburg",
   "country": "Germany",
   "lat": 51.429973,
   "lng": 6.750017,
   "merc_x": 751408.5,
   "merc_y": 6697706.3,
   "world_x_km": -498.592,
   "world_z_km": -302.294,
   "modern_population": 1276757
  },
  {
   "name": "Munich",
   "country": "Germany",
   "lat": 48.131888,
   "lng": 11.573048,
   "merc_x": 1288305.8,
   "merc_y": 6128824.4,
   "world_x_km": 38.306,
   "world_z_km": -871.176,
   "modern_population": 1275000
  },
  {
   "name": "Stockholm",
   "country": "Sweden",
   "lat": 59.352706,
   "lng": 18.095389,
   "merc_x": 2014369.5,
   "merc_y": 8257013.9,
   "world_x_km": 764.369,
   "world_z_km": 1257.014,
   "modern_population": 1264000
  },
  {
   "name": "Geneva",
   "country": "Switzerland",
   "lat": 46.210008,
   "lng": 6.140028,
   "merc_x": 683504.8,
   "merc_y": 5814067.3,
   "world_x_km": -566.495,
   "world_z_km": -1185.933,
   "modern_population": 1240000
  },
  {
   "name": "Düsseldorf",
   "country": "Germany",
   "lat": 51.220374,
   "lng": 6.779989,
   "merc_x": 754744.9,
   "merc_y": 6660368.3,
   "world_x_km": -495.255,
   "world_z_km": -339.632,
   "modern_population": 1220000
  },
  {
   "name": "Seville",
   "country": "Spain",
   "lat": 37.405015,
   "lng": -5.980007,
   "merc_x": -665691.3,
   "merc_y": 4495712.0,
   "world_x_km": -1915.691,
   "world_z_km": -2504.288,
   "modern_population": 1212045
  },
  {
   "name": "Sofia",
   "country": "Bulgaria",
   "lat": 42.685295,
   "lng": 23.314708,
   "merc_x": 2595381.4,
   "merc_y": 5264192.6,
   "world_x_km": 1345.381,
   "world_z_km": -1735.807,
   "modern_population": 1185000
  },
  {
   "name": "Prague",
   "country": "Czechia",
   "lat": 50.085283,
   "lng": 14.464034,
   "merc_x": 1610128.9,
   "merc_y": 6461058.5,
   "world_x_km": 360.129,
   "world_z_km": -538.942,
   "modern_population": 1162000
  },
  {
   "name": "Glasgow",
   "country": "United Kingdom",
   "lat": 55.876351,
   "lng": -4.252653,
   "merc_x": -473403.2,
   "merc_y": 7533839.9,
   "world_x_km": -1723.403,
   "world_z_km": 533.84,
   "modern_population": 1160000
  },
  {
   "name": "Helsinki",
   "country": "Finland",
   "lat": 60.177509,
   "lng": 24.932181,
   "merc_x": 2775437.7,
   "merc_y": 8439364.8,
   "world_x_km": 1525.438,
   "world_z_km": 1439.365,
   "modern_population": 1115000
  },
  {
   "name": "Zürich",
   "country": "Switzerland",
   "lat": 47.381934,
   "lng": 8.548064,
   "merc_x": 951566.1,
   "merc_y": 6004639.8,
   "world_x_km": -298.434,
   "world_z_km": -995.36,
   "modern_population": 1108000
  },
  {
   "name": "Belgrade",
   "country": "Serbia",
   "lat": 44.820591,
   "lng": 20.466045,
   "merc_x": 2278269.7,
   "merc_y": 5593321.3,
   "world_x_km": 1028.27,
   "world_z_km": -1406.679,
   "modern_population": 1099000
  },
  {
   "name": "København",
   "country": "Denmark",
   "lat": 55.68051,
   "lng": 12.56154,
   "merc_x": 1398344.2,
   "merc_y": 7495075.4,
   "world_x_km": 148.344,
   "world_z_km": 495.075,
   "modern_population": 1085000
  },
  {
   "name": "Dublin",
   "country": "Ireland",
   "lat": 53.335007,
   "lng": -6.250852,
   "merc_x": -695841.7,
   "merc_y": 7045207.2,
   "world_x_km": -1945.842,
   "world_z_km": 45.207,
   "modern_population": 1059000
  },
  {
   "name": "Dnipro",
   "country": "Ukraine",
   "lat": 48.481918,
   "lng": 34.998078,
   "merc_x": 3895968.2,
   "merc_y": 6187406.6,
   "world_x_km": 2645.968,
   "world_z_km": -812.593,
   "modern_population": 1050000
  },
  {
   "name": "Lille",
   "country": "France",
   "lat": 50.651915,
   "lng": 3.078062,
   "merc_x": 342648.3,
   "merc_y": 6559951.0,
   "world_x_km": -907.352,
   "world_z_km": -440.049,
   "modern_population": 1044000
  },
  {
   "name": "Amsterdam",
   "country": "Netherlands",
   "lat": 52.351915,
   "lng": 4.914694,
   "merc_x": 547101.2,
   "merc_y": 6864008.0,
   "world_x_km": -702.899,
   "world_z_km": -135.992,
   "modern_population": 1031000
  },
  {
   "name": "Rotterdam",
   "country": "Netherlands",
   "lat": 51.921915,
   "lng": 4.478029,
   "merc_x": 498491.9,
   "merc_y": 6786019.0,
   "world_x_km": -751.508,
   "world_z_km": -213.981,
   "modern_population": 1005000
  },
  {
   "name": "Cologne",
   "country": "Germany",
   "lat": 50.93195,
   "lng": 6.948059,
   "merc_x": 773454.4,
   "merc_y": 6609265.3,
   "world_x_km": -476.546,
   "world_z_km": -390.735,
   "modern_population": 1004000
  },
  {
   "name": "Odessa",
   "country": "Ukraine",
   "lat": 46.491962,
   "lng": 30.708055,
   "merc_x": 3418405.0,
   "merc_y": 5859540.0,
   "world_x_km": 2168.405,
   "world_z_km": -1140.46,
   "modern_population": 991000
  },
  {
   "name": "Salerno",
   "country": "Italy",
   "lat": 40.680397,
   "lng": 14.769941,
   "merc_x": 1644182.3,
   "merc_y": 4965314.0,
   "world_x_km": 394.182,
   "world_z_km": -2034.686,
   "modern_population": 954265
  },
  {
   "name": "Nice",
   "country": "France",
   "lat": 43.716964,
   "lng": 7.263078,
   "merc_x": 808522.1,
   "merc_y": 5421745.7,
   "world_x_km": -441.478,
   "world_z_km": -1578.254,
   "modern_population": 927000
  },
  {
   "name": "Antwerpen",
   "country": "Belgium",
   "lat": 51.222319,
   "lng": 4.413071,
   "merc_x": 491260.8,
   "merc_y": 6660714.0,
   "world_x_km": -758.739,
   "world_z_km": -339.286,
   "modern_population": 920000
  },
  {
   "name": "Konya",
   "country": "Turkey",
   "lat": 37.876958,
   "lng": 32.473064,
   "merc_x": 3614884.9,
   "merc_y": 4562058.7,
   "world_x_km": 2364.885,
   "world_z_km": -2437.941,
   "modern_population": 919000
  },
  {
   "name": "Tirana",
   "country": "Albania",
   "lat": 41.327541,
   "lng": 19.818883,
   "merc_x": 2206228.0,
   "merc_y": 5060774.6,
   "world_x_km": 956.228,
   "world_z_km": -1939.225,
   "modern_population": 895350
  },
  {
   "name": "Tarsus",
   "country": "Turkey",
   "lat": 36.920394,
   "lng": 34.879979,
   "merc_x": 3882821.5,
   "merc_y": 4428016.5,
   "world_x_km": 2632.822,
   "world_z_km": -2571.983,
   "modern_population": 894318
  },
  {
   "name": "Newcastle",
   "country": "United Kingdom",
   "lat": 55.002321,
   "lng": -1.601936,
   "merc_x": -178326.7,
   "merc_y": 7362316.6,
   "world_x_km": -1428.327,
   "world_z_km": 362.317,
   "modern_population": 882000
  },
  {
   "name": "Bilbao",
   "country": "Spain",
   "lat": 43.249982,
   "lng": -2.929987,
   "merc_x": -326164.7,
   "merc_y": 5350099.4,
   "world_x_km": -1576.165,
   "world_z_km": -1649.901,
   "modern_population": 875552
  },
  {
   "name": "Palermo",
   "country": "Italy",
   "lat": 38.126969,
   "lng": 13.348081,
   "merc_x": 1485901.6,
   "merc_y": 4597377.8,
   "world_x_km": 235.902,
   "world_z_km": -2402.622,
   "modern_population": 863000
  },
  {
   "name": "Cardiff",
   "country": "United Kingdom",
   "lat": 51.499995,
   "lng": -3.225008,
   "merc_x": -359006.2,
   "merc_y": 6710218.2,
   "world_x_km": -1609.006,
   "world_z_km": -289.782,
   "modern_population": 861400
  },
  {
   "name": "Toulouse",
   "country": "France",
   "lat": 43.621905,
   "lng": 1.447981,
   "merc_x": 161188.5,
   "merc_y": 5407116.3,
   "world_x_km": -1088.811,
   "world_z_km": -1592.884,
   "modern_population": 847000
  },
  {
   "name": "Oslo",
   "country": "Norway",
   "lat": 59.918636,
   "lng": 10.748033,
   "merc_x": 1196465.6,
   "merc_y": 8381645.3,
   "world_x_km": -53.534,
   "world_z_km": 1381.645,
   "modern_population": 835000
  },
  {
   "name": "Basel",
   "country": "Switzerland",
   "lat": 47.580389,
   "lng": 7.590017,
   "merc_x": 844916.8,
   "merc_y": 6037328.3,
   "world_x_km": -405.083,
   "world_z_km": -962.672,
   "modern_population": 830000
  },
  {
   "name": "Thessaloniki",
   "country": "Greece",
   "lat": 40.698052,
   "lng": 22.883055,
   "merc_x": 2547330.0,
   "merc_y": 4967905.9,
   "world_x_km": 1297.33,
   "world_z_km": -2032.094,
   "modern_population": 828000
  },
  {
   "name": "Braga",
   "country": "Portugal",
   "lat": 41.554995,
   "lng": -8.421331,
   "merc_x": -937458.3,
   "merc_y": 5094551.2,
   "world_x_km": -2187.458,
   "world_z_km": -1905.449,
   "modern_population": 826833
  },
  {
   "name": "Nottingham",
   "country": "United Kingdom",
   "lat": 52.970344,
   "lng": -1.170017,
   "merc_x": -130245.7,
   "merc_y": 6977514.2,
   "world_x_km": -1380.246,
   "world_z_km": -22.486,
   "modern_population": 825600
  },
  {
   "name": "Liverpool",
   "country": "United Kingdom",
   "lat": 53.417948,
   "lng": -2.919944,
   "merc_x": -325046.7,
   "merc_y": 7060684.3,
   "world_x_km": -1575.047,
   "world_z_km": 60.684,
   "modern_population": 811000
  },
  {
   "name": "Valencia",
   "country": "Spain",
   "lat": 39.486963,
   "lng": -0.401958,
   "merc_x": -44745.8,
   "merc_y": 4791666.8,
   "world_x_km": -1294.746,
   "world_z_km": -2208.333,
   "modern_population": 808000
  },
  {
   "name": "Lviv",
   "country": "Ukraine",
   "lat": 49.83498,
   "lng": 24.029996,
   "merc_x": 2675006.9,
   "merc_y": 6417746.2,
   "world_x_km": 1425.007,
   "world_z_km": -582.254,
   "modern_population": 803880
  },
  {
   "name": "Bordeaux",
   "country": "France",
   "lat": 44.851959,
   "lng": -0.596959,
   "merc_x": -66453.2,
   "merc_y": 5598245.5,
   "world_x_km": -1316.453,
   "world_z_km": -1401.755,
   "modern_population": 803000
  },
  {
   "name": "Oran",
   "country": "Algeria",
   "lat": 35.711948,
   "lng": -0.621919,
   "merc_x": -69231.7,
   "merc_y": 4261057.9,
   "world_x_km": -1319.232,
   "world_z_km": -2738.942,
   "modern_population": 798000
  },
  {
   "name": "Zaporizhzhya",
   "country": "Ukraine",
   "lat": 47.859243,
   "lng": 35.174863,
   "merc_x": 3915647.8,
   "merc_y": 6083469.7,
   "world_x_km": 2665.648,
   "world_z_km": -916.53,
   "modern_population": 788000
  },
  {
   "name": "Antalya",
   "country": "Turkey",
   "lat": 36.891928,
   "lng": 30.69803,
   "merc_x": 3417289.1,
   "merc_y": 4424053.6,
   "world_x_km": 2167.289,
   "world_z_km": -2575.946,
   "modern_population": 783000
  },
  {
   "name": "Wuppertal",
   "country": "Germany",
   "lat": 51.25001,
   "lng": 7.169991,
   "merc_x": 798159.7,
   "merc_y": 6665637.3,
   "world_x_km": -451.84,
   "world_z_km": -334.363,
   "modern_population": 776525
  },
  {
   "name": "Saarbrücken",
   "country": "Germany",
   "lat": 49.25039,
   "lng": 6.970003,
   "merc_x": 775897.2,
   "merc_y": 6317454.6,
   "world_x_km": -474.103,
   "world_z_km": -682.545,
   "modern_population": 770001
  },
  {
   "name": "Łódź",
   "country": "Poland",
   "lat": 51.776937,
   "lng": 19.449414,
   "merc_x": 2165098.9,
   "merc_y": 6759892.9,
   "world_x_km": 915.099,
   "world_z_km": -240.107,
   "modern_population": 758000
  },
  {
   "name": "Kraków",
   "country": "Poland",
   "lat": 50.061925,
   "lng": 19.958066,
   "merc_x": 2221721.7,
   "merc_y": 6457007.1,
   "world_x_km": 971.722,
   "world_z_km": -542.993,
   "modern_population": 756000
  },
  {
   "name": "Tangier",
   "country": "Morocco",
   "lat": 35.747287,
   "lng": -5.832704,
   "merc_x": -649293.6,
   "merc_y": 4265903.9,
   "world_x_km": -1899.294,
   "world_z_km": -2734.096,
   "modern_population": 750060
  },
  {
   "name": "Liège",
   "country": "Belgium",
   "lat": 50.629996,
   "lng": 5.580011,
   "merc_x": 621164.0,
   "merc_y": 6556103.4,
   "world_x_km": -628.836,
   "world_z_km": -443.897,
   "modern_population": 749110
  },
  {
   "name": "Riga",
   "country": "Latvia",
   "lat": 56.950024,
   "lng": 24.099965,
   "merc_x": 2682795.8,
   "merc_y": 7749910.9,
   "world_x_km": 1432.796,
   "world_z_km": 749.911,
   "modern_population": 742572
  },
  {
   "name": "Gdańsk",
   "country": "Poland",
   "lat": 54.359975,
   "lng": 18.64004,
   "merc_x": 2074999.8,
   "merc_y": 7238628.2,
   "world_x_km": 825.0,
   "world_z_km": 238.628,
   "modern_population": 740000
  },
  {
   "name": "Nürnberg",
   "country": "Germany",
   "lat": 49.449991,
   "lng": 11.079985,
   "merc_x": 1233418.3,
   "merc_y": 6351563.3,
   "world_x_km": -16.582,
   "world_z_km": -648.437,
   "modern_population": 737304
  },
  {
   "name": "Bremen",
   "country": "Germany",
   "lat": 53.080002,
   "lng": 8.800021,
   "merc_x": 979613.9,
   "merc_y": 6997809.9,
   "world_x_km": -270.386,
   "world_z_km": -2.19,
   "modern_population": 724909
  },
  {
   "name": "Zagreb",
   "country": "Croatia",
   "lat": 45.800007,
   "lng": 15.999995,
   "merc_x": 1781111.3,
   "merc_y": 5748357.9,
   "world_x_km": 531.111,
   "world_z_km": -1251.642,
   "modern_population": 722526
  },
  {
   "name": "Hanover",
   "country": "Germany",
   "lat": 52.36697,
   "lng": 9.716657,
   "merc_x": 1081653.3,
   "merc_y": 6866752.3,
   "world_x_km": -168.347,
   "world_z_km": -133.248,
   "modern_population": 722490
  },
  {
   "name": "Sarajevo",
   "country": "Bosnia and Herzegovina",
   "lat": 43.850022,
   "lng": 18.383002,
   "merc_x": 2046386.4,
   "merc_y": 5442262.0,
   "world_x_km": 796.386,
   "world_z_km": -1557.738,
   "modern_population": 696731
  },
  {
   "name": "Chișinău",
   "country": "Moldova",
   "lat": 47.005024,
   "lng": 28.857711,
   "merc_x": 3212425.7,
   "merc_y": 5942894.2,
   "world_x_km": 1962.426,
   "world_z_km": -1057.106,
   "modern_population": 688134
  },
  {
   "name": "Bonn",
   "country": "Germany",
   "lat": 50.720456,
   "lng": 7.080022,
   "merc_x": 788144.4,
   "merc_y": 6571993.8,
   "world_x_km": -461.856,
   "world_z_km": -428.006,
   "modern_population": 680543
  },
  {
   "name": "Catania",
   "country": "Italy",
   "lat": 37.499971,
   "lng": 15.079999,
   "merc_x": 1678697.8,
   "merc_y": 4509027.3,
   "world_x_km": 428.698,
   "world_z_km": -2490.973,
   "modern_population": 674542
  },
  {
   "name": "Bytom",
   "country": "Poland",
   "lat": 50.350039,
   "lng": 18.909998,
   "merc_x": 2105051.3,
   "merc_y": 6507118.6,
   "world_x_km": 855.051,
   "world_z_km": -492.881,
   "modern_population": 662247
  },
  {
   "name": "Kryvyy Rih",
   "country": "Ukraine",
   "lat": 47.928326,
   "lng": 33.344983,
   "merc_x": 3711946.5,
   "merc_y": 6094939.1,
   "world_x_km": 2461.947,
   "world_z_km": -905.061,
   "modern_population": 652380
  },
  {
   "name": "Zaragoza",
   "country": "Spain",
   "lat": 41.650002,
   "lng": -0.889982,
   "merc_x": -99072.3,
   "merc_y": 5108694.8,
   "world_x_km": -1349.072,
   "world_z_km": -1891.305,
   "modern_population": 649404
  },
  {
   "name": "Genoa",
   "country": "Italy",
   "lat": 44.409988,
   "lng": 8.930039,
   "merc_x": 994087.4,
   "merc_y": 5529109.5,
   "world_x_km": -255.913,
   "world_z_km": -1470.89,
   "modern_population": 647497
  },
  {
   "name": "Utrecht",
   "country": "Netherlands",
   "lat": 52.100346,
   "lng": 5.120039,
   "merc_x": 569960.1,
   "merc_y": 6818289.7,
   "world_x_km": -680.04,
   "world_z_km": -181.71,
   "modern_population": 640000
  },
  {
   "name": "Wrocław",
   "country": "Poland",
   "lat": 51.110432,
   "lng": 17.030009,
   "merc_x": 1895771.9,
   "merc_y": 6640851.2,
   "world_x_km": 645.772,
   "world_z_km": -359.149,
   "modern_population": 634893
  },
  {
   "name": "Poznań",
   "country": "Poland",
   "lat": 52.405753,
   "lng": 16.89994,
   "merc_x": 1881292.7,
   "merc_y": 6873825.9,
   "world_x_km": 631.293,
   "world_z_km": -126.174,
   "modern_population": 623997
  },
  {
   "name": "Southend-on-Sea",
   "country": "United Kingdom",
   "lat": 51.550018,
   "lng": 0.719997,
   "merc_x": 80149.7,
   "merc_y": 6719168.3,
   "world_x_km": -1169.85,
   "world_z_km": -280.832,
   "modern_population": 618386
  },
  {
   "name": "Dresden",
   "country": "Germany",
   "lat": 51.049971,
   "lng": 13.750003,
   "merc_x": 1530643.3,
   "merc_y": 6630137.8,
   "world_x_km": 280.643,
   "world_z_km": -369.862,
   "modern_population": 617515
  },
  {
   "name": "Wiesbaden",
   "country": "Germany",
   "lat": 50.080392,
   "lng": 8.250028,
   "merc_x": 918388.9,
   "merc_y": 6460210.0,
   "world_x_km": -331.611,
   "world_z_km": -539.79,
   "modern_population": 617126
  },
  {
   "name": "Icel",
   "country": "Turkey",
   "lat": 36.799988,
   "lng": 34.619995,
   "merc_x": 3853880.2,
   "merc_y": 4411264.2,
   "world_x_km": 2603.88,
   "world_z_km": -2588.736,
   "modern_population": 616990
  },
  {
   "name": "Constantine",
   "country": "Algeria",
   "lat": 36.359989,
   "lng": 6.599948,
   "merc_x": 734702.9,
   "merc_y": 4350269.0,
   "world_x_km": -515.297,
   "world_z_km": -2649.731,
   "modern_population": 605179
  },
  {
   "name": "Kayseri",
   "country": "Turkey",
   "lat": 38.73496,
   "lng": 35.49002,
   "merc_x": 3950731.0,
   "merc_y": 4683777.7,
   "world_x_km": 2700.731,
   "world_z_km": -2316.222,
   "modern_population": 592840
  },
  {
   "name": "Dortmund",
   "country": "Germany",
   "lat": 51.529967,
   "lng": 7.450026,
   "merc_x": 829333.1,
   "merc_y": 6715579.6,
   "world_x_km": -420.667,
   "world_z_km": -284.42,
   "modern_population": 588462
  },
  {
   "name": "Bristol",
   "country": "United Kingdom",
   "lat": 51.449998,
   "lng": -2.583316,
   "merc_x": -287573.4,
   "merc_y": 6701282.5,
   "world_x_km": -1537.573,
   "world_z_km": -298.717,
   "modern_population": 553528
  },
  {
   "name": "Málaga",
   "country": "Spain",
   "lat": 36.720406,
   "lng": -4.419999,
   "merc_x": -492032.0,
   "merc_y": 4400206.3,
   "world_x_km": -1742.032,
   "world_z_km": -2599.794,
   "modern_population": 550058
  },
  {
   "name": "Leipzig",
   "country": "Germany",
   "lat": 51.335405,
   "lng": 12.409981,
   "merc_x": 1381472.8,
   "merc_y": 6680838.8,
   "world_x_km": 131.473,
   "world_z_km": -319.161,
   "modern_population": 542529
  },
  {
   "name": "Vilnius",
   "country": "Lithuania",
   "lat": 54.683366,
   "lng": 25.316635,
   "merc_x": 2818234.9,
   "merc_y": 7300654.8,
   "world_x_km": 1568.235,
   "world_z_km": 300.655,
   "modern_population": 542366
  },
  {
   "name": "Göteborg",
   "country": "Sweden",
   "lat": 57.750001,
   "lng": 12.000032,
   "merc_x": 1335837.5,
   "merc_y": 7914982.9,
   "world_x_km": 85.837,
   "world_z_km": 914.983,
   "modern_population": 537797
  },
  {
   "name": "Rouen",
   "country": "France",
   "lat": 49.430405,
   "lng": 1.079975,
   "merc_x": 120222.3,
   "merc_y": 6348210.2,
   "world_x_km": -1129.778,
   "world_z_km": -651.79,
   "modern_population": 532559
  },
  {
   "name": "Eskişehir",
   "country": "Turkey",
   "lat": 39.794999,
   "lng": 30.529961,
   "merc_x": 3398579.7,
   "merc_y": 4836196.7,
   "world_x_km": 2148.58,
   "world_z_km": -2163.803,
   "modern_population": 514869
  },
  {
   "name": "Blida",
   "country": "Algeria",
   "lat": 36.420347,
   "lng": 2.829998,
   "merc_x": 315033.9,
   "merc_y": 4358615.7,
   "world_x_km": -934.966,
   "world_z_km": -2641.384,
   "modern_population": 511348
  },
  {
   "name": "Mykolayiv",
   "country": "Ukraine",
   "lat": 46.967739,
   "lng": 31.984342,
   "merc_x": 3560480.7,
   "merc_y": 5936809.8,
   "world_x_km": 2310.481,
   "world_z_km": -1063.19,
   "modern_population": 510840
  },
  {
   "name": "Gliwice",
   "country": "Poland",
   "lat": 50.330376,
   "lng": 18.670013,
   "merc_x": 2078336.3,
   "merc_y": 6503689.0,
   "world_x_km": 828.336,
   "world_z_km": -496.311,
   "modern_population": 507670
  },
  {
   "name": "Edinburgh",
   "country": "United Kingdom",
   "lat": 55.948328,
   "lng": -3.219091,
   "merc_x": -358347.6,
   "merc_y": 7548136.1,
   "world_x_km": -1608.348,
   "world_z_km": 548.136,
   "modern_population": 504966
  },
  {
   "name": "Annaba",
   "country": "Algeria",
   "lat": 36.920006,
   "lng": 7.759981,
   "merc_x": 863837.1,
   "merc_y": 4427962.5,
   "world_x_km": -386.163,
   "world_z_km": -2572.037,
   "modern_population": 503524
  },
  {
   "name": "Brighton",
   "country": "United Kingdom",
   "lat": 50.830346,
   "lng": -0.169974,
   "merc_x": -18921.4,
   "merc_y": 6591338.6,
   "world_x_km": -1268.921,
   "world_z_km": -408.661,
   "modern_population": 503008
  },
  {
   "name": "Bradford",
   "country": "United Kingdom",
   "lat": 53.800035,
   "lng": -1.749981,
   "merc_x": -194807.0,
   "merc_y": 7132375.9,
   "world_x_km": -1444.807,
   "world_z_km": 132.376,
   "modern_population": 501700
  },
  {
   "name": "Bari",
   "country": "Italy",
   "lat": 41.11422,
   "lng": 16.872758,
   "merc_x": 1878266.8,
   "merc_y": 5029203.7,
   "world_x_km": 628.267,
   "world_z_km": -1970.796,
   "modern_population": 500577
  },
  {
   "name": "Skopje",
   "country": "North Macedonia",
   "lat": 42.000006,
   "lng": 21.433462,
   "merc_x": 2385962.1,
   "merc_y": 5160980.3,
   "world_x_km": 1135.962,
   "world_z_km": -1839.02,
   "modern_population": 494087
  },
  {
   "name": "Bologna",
   "country": "Italy",
   "lat": 44.500422,
   "lng": 11.340021,
   "merc_x": 1262365.4,
   "merc_y": 5543213.1,
   "world_x_km": 12.365,
   "world_z_km": -1456.787,
   "modern_population": 488172
  },
  {
   "name": "Homyel",
   "country": "Belarus",
   "lat": 52.430016,
   "lng": 31.000009,
   "merc_x": 3450905.2,
   "merc_y": 6878254.5,
   "world_x_km": 2200.905,
   "world_z_km": -121.746,
   "modern_population": 480951
  },
  {
   "name": "Ostrava",
   "country": "Czechia",
   "lat": 49.830355,
   "lng": 18.249987,
   "merc_x": 2031579.3,
   "merc_y": 6416948.0,
   "world_x_km": 781.579,
   "world_z_km": -583.052,
   "modern_population": 478963
  },
  {
   "name": "İzmit",
   "country": "Turkey",
   "lat": 40.776024,
   "lng": 29.930617,
   "merc_x": 3331861.0,
   "merc_y": 4979361.2,
   "world_x_km": 2081.861,
   "world_z_km": -2020.639,
   "modern_population": 466504
  },
  {
   "name": "Piraeus",
   "country": "Greece",
   "lat": 37.950021,
   "lng": 23.69999,
   "merc_x": 2638270.8,
   "merc_y": 4572367.9,
   "world_x_km": 1388.271,
   "world_z_km": -2427.632,
   "modern_population": 466065
  },
  {
   "name": "Pristina",
   "country": "Kosovo",
   "lat": 42.66671,
   "lng": 21.165984,
   "merc_x": 2356186.6,
   "merc_y": 5261378.5,
   "world_x_km": 1106.187,
   "world_z_km": -1738.621,
   "modern_population": 465186
  },
  {
   "name": "Leicester",
   "country": "United Kingdom",
   "lat": 52.629977,
   "lng": -1.133249,
   "merc_x": -126152.7,
   "merc_y": 6914844.8,
   "world_x_km": -1376.153,
   "world_z_km": -85.155,
   "modern_population": 457983
  },
  {
   "name": "Sunderland",
   "country": "United Kingdom",
   "lat": 54.920019,
   "lng": -1.38003,
   "merc_x": -153624.2,
   "merc_y": 7346358.9,
   "world_x_km": -1403.624,
   "world_z_km": 346.359,
   "modern_population": 452934
  },
  {
   "name": "Belfast",
   "country": "United Kingdom",
   "lat": 54.600012,
   "lng": -5.960034,
   "merc_x": -663467.9,
   "merc_y": 7284620.4,
   "world_x_km": -1913.468,
   "world_z_km": 284.62,
   "modern_population": 450406
  },
  {
   "name": "Chlef",
   "country": "Algeria",
   "lat": 36.170414,
   "lng": 1.319961,
   "merc_x": 146937.4,
   "merc_y": 4324095.5,
   "world_x_km": -1103.063,
   "world_z_km": -2675.905,
   "modern_population": 449167
  },
  {
   "name": "Gent",
   "country": "Belgium",
   "lat": 51.029998,
   "lng": 3.700022,
   "merc_x": 411884.6,
   "merc_y": 6626601.7,
   "world_x_km": -838.115,
   "world_z_km": -373.398,
   "modern_population": 444336
  },
  {
   "name": "Portsmouth",
   "country": "United Kingdom",
   "lat": 50.800348,
   "lng": -1.080022,
   "merc_x": -120227.5,
   "merc_y": 6586053.3,
   "world_x_km": -1370.227,
   "world_z_km": -413.947,
   "modern_population": 442252
  },
  {
   "name": "Strasbourg",
   "country": "France",
   "lat": 48.579966,
   "lng": 7.750007,
   "merc_x": 862726.8,
   "merc_y": 6203888.6,
   "world_x_km": -387.273,
   "world_z_km": -796.111,
   "modern_population": 439972
  },
  {
   "name": "Nantes",
   "country": "France",
   "lat": 47.210386,
   "lng": -1.590017,
   "merc_x": -176999.9,
   "merc_y": 5976482.3,
   "world_x_km": -1427.0,
   "world_z_km": -1023.518,
   "modern_population": 438537
  },
  {
   "name": "Kaliningrad",
   "country": "Russia",
   "lat": 54.700006,
   "lng": 20.497343,
   "merc_x": 2281753.8,
   "merc_y": 7303859.7,
   "world_x_km": 1031.754,
   "world_z_km": 303.86,
   "modern_population": 434954
  },
  {
   "name": "Bryansk",
   "country": "Russia",
   "lat": 53.259991,
   "lng": 34.429981,
   "merc_x": 3832728.0,
   "merc_y": 7031234.8,
   "world_x_km": 2582.728,
   "world_z_km": 31.235,
   "modern_population": 427236
  },
  {
   "name": "Bournemouth",
   "country": "United Kingdom",
   "lat": 50.72999,
   "lng": -1.90005,
   "merc_x": -211512.6,
   "merc_y": 6573670.3,
   "world_x_km": -1461.513,
   "world_z_km": -426.33,
   "modern_population": 426945
  },
  {
   "name": "Heidelberg",
   "country": "Germany",
   "lat": 49.419993,
   "lng": 8.699975,
   "merc_x": 968476.8,
   "merc_y": 6346428.2,
   "world_x_km": -281.523,
   "world_z_km": -653.572,
   "modern_population": 426590
  },
  {
   "name": "Bratislava",
   "country": "Slovakia",
   "lat": 48.150018,
   "lng": 17.116981,
   "merc_x": 1905453.6,
   "merc_y": 6131848.9,
   "world_x_km": 655.454,
   "world_z_km": -868.151,
   "modern_population": 423737
  },
  {
   "name": "Middlesbrough",
   "country": "United Kingdom",
   "lat": 54.580375,
   "lng": -1.230013,
   "merc_x": -136924.4,
   "merc_y": 7280847.7,
   "world_x_km": -1386.924,
   "world_z_km": 280.848,
   "modern_population": 416042
  },
  {
   "name": "Metz",
   "country": "France",
   "lat": 49.120347,
   "lng": 6.180026,
   "merc_x": 687957.3,
   "merc_y": 6295306.5,
   "world_x_km": -562.043,
   "world_z_km": -704.694,
   "modern_population": 409186
  },
  {
   "name": "Szczecin",
   "country": "Poland",
   "lat": 53.420394,
   "lng": 14.530007,
   "merc_x": 1617473.0,
   "merc_y": 7061141.2,
   "world_x_km": 367.473,
   "world_z_km": 61.141,
   "modern_population": 407811
  },
  {
   "name": "Murcia",
   "country": "Spain",
   "lat": 37.979993,
   "lng": -1.129968,
   "merc_x": -125787.5,
   "merc_y": 4576599.9,
   "world_x_km": -1375.787,
   "world_z_km": -2423.4,
   "modern_population": 406807
  },
  {
   "name": "Tver",
   "country": "Russia",
   "lat": 56.859978,
   "lng": 35.889995,
   "merc_x": 3995256.0,
   "merc_y": 7731553.1,
   "world_x_km": 2745.256,
   "world_z_km": 731.553,
   "modern_population": 400212
  },
  {
   "name": "Khmelnytskyy",
   "country": "Ukraine",
   "lat": 49.424928,
   "lng": 27.001545,
   "merc_x": 3005798.2,
   "merc_y": 6347272.8,
   "world_x_km": 1755.798,
   "world_z_km": -652.727,
   "modern_population": 398346
  },
  {
   "name": "Eindhoven",
   "country": "Netherlands",
   "lat": 51.429973,
   "lng": 5.500015,
   "merc_x": 612258.9,
   "merc_y": 6697706.3,
   "world_x_km": -637.741,
   "world_z_km": -302.294,
   "modern_population": 398053
  },
  {
   "name": "Tallinn",
   "country": "Estonia",
   "lat": 59.433877,
   "lng": 24.728041,
   "merc_x": 2752712.9,
   "merc_y": 8274761.2,
   "world_x_km": 1502.713,
   "world_z_km": 1274.761,
   "modern_population": 394024
  },
  {
   "name": "Stoke",
   "country": "United Kingdom",
   "lat": 53.000368,
   "lng": -2.180007,
   "merc_x": -242677.3,
   "merc_y": 6983066.0,
   "world_x_km": -1492.677,
   "world_z_km": -16.934,
   "modern_population": 390801
  },
  {
   "name": "Grenoble",
   "country": "France",
   "lat": 45.180381,
   "lng": 5.720002,
   "merc_x": 636747.7,
   "merc_y": 5649963.6,
   "world_x_km": -613.252,
   "world_z_km": -1350.036,
   "modern_population": 388574
  },
  {
   "name": "Granada‎",
   "country": "Spain",
   "lat": 37.164978,
   "lng": -3.585011,
   "merc_x": -399081.6,
   "merc_y": 4462127.6,
   "world_x_km": -1649.082,
   "world_z_km": -2537.872,
   "modern_population": 388290
  },
  {
   "name": "Brno",
   "country": "Czechia",
   "lat": 49.200394,
   "lng": 16.609983,
   "merc_x": 1849014.8,
   "merc_y": 6308932.7,
   "world_x_km": 599.015,
   "world_z_km": -691.067,
   "modern_population": 388277
  },
  {
   "name": "Coventry",
   "country": "United Kingdom",
   "lat": 52.420404,
   "lng": -1.499997,
   "merc_x": -166978.9,
   "merc_y": 6876499.8,
   "world_x_km": -1416.979,
   "world_z_km": -123.5,
   "modern_population": 388271
  },
  {
   "name": "Béjaïa",
   "country": "Algeria",
   "lat": 36.760378,
   "lng": 5.070016,
   "merc_x": 564391.6,
   "merc_y": 4405759.0,
   "world_x_km": -685.608,
   "world_z_km": -2594.241,
   "modern_population": 384937
  },
  {
   "name": "Southampton",
   "country": "United Kingdom",
   "lat": 50.900031,
   "lng": -1.399977,
   "merc_x": -155844.7,
   "merc_y": 6603629.4,
   "world_x_km": -1405.845,
   "world_z_km": -396.371,
   "modern_population": 384417
  },
  {
   "name": "Sevastopol",
   "country": "Russia",
   "lat": 44.599977,
   "lng": 33.464975,
   "merc_x": 3725304.0,
   "merc_y": 5558764.4,
   "world_x_km": 2475.304,
   "world_z_km": -1441.236,
   "modern_population": 379200
  },
  {
   "name": "Vigo",
   "country": "Spain",
   "lat": 42.220019,
   "lng": -8.729995,
   "merc_x": -971818.6,
   "merc_y": 5193994.4,
   "world_x_km": -2221.819,
   "world_z_km": -1806.006,
   "modern_population": 378952
  },
  {
   "name": "Karlsruhe",
   "country": "Germany",
   "lat": 48.999992,
   "lng": 8.399993,
   "merc_x": 935082.9,
   "merc_y": 6274860.0,
   "world_x_km": -314.917,
   "world_z_km": -725.14,
   "modern_population": 377487
  },
  {
   "name": "Palma",
   "country": "Spain",
   "lat": 39.574263,
   "lng": 2.654246,
   "merc_x": 295469.3,
   "merc_y": 4804266.8,
   "world_x_km": -954.531,
   "world_z_km": -2195.733,
   "modern_population": 375773
  },
  {
   "name": "Kaunas",
   "country": "Lithuania",
   "lat": 54.950404,
   "lng": 23.880031,
   "merc_x": 2658312.9,
   "merc_y": 7352246.5,
   "world_x_km": 1408.313,
   "world_z_km": 352.246,
   "modern_population": 374643
  },
  {
   "name": "Denizli",
   "country": "Turkey",
   "lat": 37.770394,
   "lng": 29.080023,
   "merc_x": 3237173.4,
   "merc_y": 4547040.8,
   "world_x_km": 1987.173,
   "world_z_km": -2452.959,
   "modern_population": 372344
  },
  {
   "name": "La Coruña",
   "country": "Spain",
   "lat": 43.329977,
   "lng": -8.419988,
   "merc_x": -937308.8,
   "merc_y": 5362333.3,
   "world_x_km": -2187.309,
   "world_z_km": -1637.667,
   "modern_population": 370610
  },
  {
   "name": "Reading",
   "country": "United Kingdom",
   "lat": 51.469971,
   "lng": -0.980028,
   "merc_x": -109096.2,
   "merc_y": 6704851.0,
   "world_x_km": -1359.096,
   "world_z_km": -295.149,
   "modern_population": 369804
  },
  {
   "name": "Mahilyow",
   "country": "Belarus",
   "lat": 53.898505,
   "lng": 30.32465,
   "merc_x": 3375724.6,
   "merc_y": 7150957.7,
   "world_x_km": 2125.725,
   "world_z_km": 150.958,
   "modern_population": 369200
  },
  {
   "name": "Valletta",
   "country": "Malta",
   "lat": 35.899733,
   "lng": 14.514711,
   "merc_x": 1615770.2,
   "merc_y": 4286833.5,
   "world_x_km": 365.77,
   "world_z_km": -2713.166,
   "modern_population": 368250
  },
  {
   "name": "Bydgoszcz",
   "country": "Poland",
   "lat": 53.120413,
   "lng": 18.010001,
   "merc_x": 2004864.1,
   "merc_y": 7005302.2,
   "world_x_km": 754.864,
   "world_z_km": 5.302,
   "modern_population": 366452
  },
  {
   "name": "Lublin",
   "country": "Poland",
   "lat": 51.250398,
   "lng": 22.57272,
   "merc_x": 2512783.7,
   "merc_y": 6665706.3,
   "world_x_km": 1262.784,
   "world_z_km": -334.294,
   "modern_population": 360044
  },
  {
   "name": "Augsburg",
   "country": "Germany",
   "lat": 48.350006,
   "lng": 10.899996,
   "merc_x": 1213382.0,
   "merc_y": 6165282.1,
   "world_x_km": -36.618,
   "world_z_km": -834.718,
   "modern_population": 358989
  },
  {
   "name": "Simferopol",
   "country": "Russia",
   "lat": 44.949154,
   "lng": 34.098735,
   "merc_x": 3795853.8,
   "merc_y": 5613520.4,
   "world_x_km": 2545.854,
   "world_z_km": -1386.48,
   "modern_population": 358108
  },
  {
   "name": "Toulon",
   "country": "France",
   "lat": 43.134187,
   "lng": 5.918822,
   "merc_x": 658880.3,
   "merc_y": 5332418.8,
   "world_x_km": -591.12,
   "world_z_km": -1667.581,
   "modern_population": 357693
  },
  {
   "name": "San Sebastián",
   "country": "Spain",
   "lat": 43.320391,
   "lng": -1.979993,
   "merc_x": -220411.8,
   "merc_y": 5360866.5,
   "world_x_km": -1470.412,
   "world_z_km": -1639.134,
   "modern_population": 357468
  },
  {
   "name": "Vinnytsya",
   "country": "Ukraine",
   "lat": 49.225379,
   "lng": 28.481558,
   "merc_x": 3170552.5,
   "merc_y": 6313190.4,
   "world_x_km": 1920.553,
   "world_z_km": -686.81,
   "modern_population": 352115
  },
  {
   "name": "Haarlem",
   "country": "Netherlands",
   "lat": 52.380432,
   "lng": 4.629991,
   "merc_x": 515408.2,
   "merc_y": 6869206.9,
   "world_x_km": -734.592,
   "world_z_km": -130.793,
   "modern_population": 349957
  },
  {
   "name": "Linz",
   "country": "Austria",
   "lat": 48.319233,
   "lng": 14.288781,
   "merc_x": 1590619.8,
   "merc_y": 6160129.1,
   "world_x_km": 340.62,
   "world_z_km": -839.871,
   "modern_population": 349161
  },
  {
   "name": "Verona",
   "country": "Italy",
   "lat": 45.44039,
   "lng": 10.990016,
   "merc_x": 1223403.0,
   "merc_y": 5691120.4,
   "world_x_km": -26.597,
   "world_z_km": -1308.88,
   "modern_population": 347459
  },
  {
   "name": "Charleroi",
   "country": "Belgium",
   "lat": 50.420397,
   "lng": 4.450002,
   "merc_x": 495372.0,
   "merc_y": 6519402.0,
   "world_x_km": -754.628,
   "world_z_km": -480.598,
   "modern_population": 345367
  },
  {
   "name": "Vitsyebsk",
   "country": "Belarus",
   "lat": 55.18871,
   "lng": 30.18533,
   "merc_x": 3360215.6,
   "merc_y": 7398577.4,
   "world_x_km": 2110.216,
   "world_z_km": 398.577,
   "modern_population": 342700
  },
  {
   "name": "Plovdiv",
   "country": "Bulgaria",
   "lat": 42.153976,
   "lng": 24.753982,
   "merc_x": 2755600.7,
   "merc_y": 5184072.3,
   "world_x_km": 1505.601,
   "world_z_km": -1815.928,
   "modern_population": 340494
  },
  {
   "name": "Gijón",
   "country": "Spain",
   "lat": 43.530016,
   "lng": -5.67,
   "merc_x": -631181.5,
   "merc_y": 5392996.8,
   "world_x_km": -1881.182,
   "world_z_km": -1607.003,
   "modern_population": 335972
  },
  {
   "name": "Bielefeld",
   "country": "Germany",
   "lat": 52.029988,
   "lng": 8.530011,
   "merc_x": 949556.5,
   "merc_y": 6805549.5,
   "world_x_km": -300.444,
   "world_z_km": -194.451,
   "modern_population": 331906
  },
  {
   "name": "Montpellier",
   "country": "France",
   "lat": 43.610399,
   "lng": 3.869986,
   "merc_x": 430804.9,
   "merc_y": 5405347.2,
   "world_x_km": -819.195,
   "world_z_km": -1594.653,
   "modern_population": 327254
  },
  {
   "name": "Sousse",
   "country": "Tunisia",
   "lat": 35.829995,
   "lng": 10.625026,
   "merc_x": 1182772.5,
   "merc_y": 4277254.1,
   "world_x_km": -67.228,
   "world_z_km": -2722.746,
   "modern_population": 327004
  },
  {
   "name": "Iași",
   "country": "Romania",
   "lat": 47.168347,
   "lng": 27.574947,
   "merc_x": 3069629.1,
   "merc_y": 5969596.0,
   "world_x_km": 1819.629,
   "world_z_km": -1030.404,
   "modern_population": 325914
  },
  {
   "name": "Valladolid",
   "country": "Spain",
   "lat": 41.650002,
   "lng": -4.750031,
   "merc_x": -528771.0,
   "merc_y": 5108694.8,
   "world_x_km": -1778.771,
   "world_z_km": -1891.305,
   "modern_population": 322304
  },
  {
   "name": "Córdoba",
   "country": "Spain",
   "lat": 37.879999,
   "lng": -4.770004,
   "merc_x": -530994.4,
   "merc_y": 4562487.5,
   "world_x_km": -1780.994,
   "world_z_km": -2437.512,
   "modern_population": 321376
  },
  {
   "name": "Smolensk",
   "country": "Russia",
   "lat": 54.782688,
   "lng": 32.047336,
   "merc_x": 3567493.1,
   "merc_y": 7319804.0,
   "world_x_km": 2317.493,
   "world_z_km": 319.804,
   "modern_population": 320991
  },
  {
   "name": "Kherson",
   "country": "Ukraine",
   "lat": 46.632537,
   "lng": 32.600665,
   "merc_x": 3629089.4,
   "merc_y": 5882299.7,
   "world_x_km": 2379.089,
   "world_z_km": -1117.7,
   "modern_population": 320477
  },
  {
   "name": "Poltava",
   "country": "Ukraine",
   "lat": 49.57404,
   "lng": 34.570282,
   "merc_x": 3848346.2,
   "merc_y": 6372831.3,
   "world_x_km": 2598.346,
   "world_z_km": -627.169,
   "modern_population": 317847
  },
  {
   "name": "Hrodna",
   "country": "Belarus",
   "lat": 53.677872,
   "lng": 23.83409,
   "merc_x": 2653198.8,
   "merc_y": 7109383.6,
   "world_x_km": 1403.199,
   "world_z_km": 109.384,
   "modern_population": 317365
  },
  {
   "name": "Cluj-Napoca",
   "country": "Romania",
   "lat": 46.788422,
   "lng": 23.598446,
   "merc_x": 2626967.0,
   "merc_y": 5907607.3,
   "world_x_km": 1376.967,
   "world_z_km": -1092.393,
   "modern_population": 316748
  },
  {
   "name": "Alicante",
   "country": "Spain",
   "lat": 38.35122,
   "lng": -0.483641,
   "merc_x": -53838.7,
   "merc_y": 4629160.9,
   "world_x_km": -1303.839,
   "world_z_km": -2370.839,
   "modern_population": 315863
  },
  {
   "name": "Timișoara",
   "country": "Romania",
   "lat": 45.758821,
   "lng": 21.223448,
   "merc_x": 2362583.4,
   "merc_y": 5741784.0,
   "world_x_km": 1112.583,
   "world_z_km": -1258.216,
   "modern_population": 315053
  },
  {
   "name": "Ljubljana",
   "country": "Slovenia",
   "lat": 46.055288,
   "lng": 14.514969,
   "merc_x": 1615799.0,
   "merc_y": 5789213.6,
   "world_x_km": 365.799,
   "world_z_km": -1210.786,
   "modern_population": 314807
  },
  {
   "name": "Pescara",
   "country": "Italy",
   "lat": 42.455431,
   "lng": 14.218656,
   "merc_x": 1582813.5,
   "merc_y": 5229446.8,
   "world_x_km": 332.814,
   "world_z_km": -1770.553,
   "modern_population": 314789
  },
  {
   "name": "Gdynia",
   "country": "Poland",
   "lat": 54.520379,
   "lng": 18.530021,
   "merc_x": 2062752.5,
   "merc_y": 7269332.4,
   "world_x_km": 812.753,
   "world_z_km": 269.332,
   "modern_population": 314664
  },
  {
   "name": "Varna",
   "country": "Bulgaria",
   "lat": 43.215643,
   "lng": 27.895289,
   "merc_x": 3105289.4,
   "merc_y": 5344852.7,
   "world_x_km": 1855.289,
   "world_z_km": -1655.147,
   "modern_population": 312770
  },
  {
   "name": "Koblenz",
   "country": "Germany",
   "lat": 50.350478,
   "lng": 7.599991,
   "merc_x": 846027.1,
   "merc_y": 6507195.2,
   "world_x_km": -403.973,
   "world_z_km": -492.805,
   "modern_population": 312633
  },
  {
   "name": "Galați",
   "country": "Romania",
   "lat": 45.455893,
   "lng": 28.045874,
   "merc_x": 3122052.4,
   "merc_y": 5693580.3,
   "world_x_km": 1872.052,
   "world_z_km": -1306.42,
   "modern_population": 311156
  },
  {
   "name": "Brașov",
   "country": "Romania",
   "lat": 45.647535,
   "lng": 25.60716,
   "merc_x": 2850576.0,
   "merc_y": 5724045.2,
   "world_x_km": 1600.576,
   "world_z_km": -1275.955,
   "modern_population": 311044
  },
  {
   "name": "Chernihiv",
   "country": "Ukraine",
   "lat": 51.50493,
   "lng": 31.301541,
   "merc_x": 3484471.6,
   "merc_y": 6711100.7,
   "world_x_km": 2234.472,
   "world_z_km": -288.899,
   "modern_population": 307684
  },
  {
   "name": "Craiova",
   "country": "Romania",
   "lat": 44.326272,
   "lng": 23.825874,
   "merc_x": 2652284.2,
   "merc_y": 5516073.1,
   "world_x_km": 1402.284,
   "world_z_km": -1483.927,
   "modern_population": 304142
  },
  {
   "name": "Constanța",
   "country": "Romania",
   "lat": 44.202662,
   "lng": 28.609974,
   "merc_x": 3184847.7,
   "merc_y": 5496858.3,
   "world_x_km": 1934.848,
   "world_z_km": -1503.142,
   "modern_population": 303399
  },
  {
   "name": "Chemnitz",
   "country": "Germany",
   "lat": 50.829984,
   "lng": 12.919976,
   "merc_x": 1438245.1,
   "merc_y": 6591274.8,
   "world_x_km": 188.245,
   "world_z_km": -408.725,
   "modern_population": 302643
  },
  {
   "name": "Kingston upon Hull",
   "country": "United Kingdom",
   "lat": 53.750426,
   "lng": -0.329991,
   "merc_x": -36734.4,
   "merc_y": 7123030.9,
   "world_x_km": -1286.734,
   "world_z_km": 123.031,
   "modern_population": 302296
  },
  {
   "name": "Brest",
   "country": "Belarus",
   "lat": 52.099984,
   "lng": 23.69999,
   "merc_x": 2638270.8,
   "merc_y": 6818224.1,
   "world_x_km": 1388.271,
   "world_z_km": -181.776,
   "modern_population": 300715
  },
  {
   "name": "Chernivtsi",
   "country": "Ukraine",
   "lat": 48.305306,
   "lng": 25.92156,
   "merc_x": 2885574.9,
   "merc_y": 6157798.0,
   "world_x_km": 1635.575,
   "world_z_km": -842.202,
   "modern_population": 298251
  },
  {
   "name": "Cherkasy",
   "country": "Ukraine",
   "lat": 49.43472,
   "lng": 32.0709,
   "merc_x": 3570116.3,
   "merc_y": 6348948.8,
   "world_x_km": 2320.116,
   "world_z_km": -651.051,
   "modern_population": 297568
  },
  {
   "name": "Sumy",
   "country": "Ukraine",
   "lat": 50.924293,
   "lng": 34.780864,
   "merc_x": 3871788.1,
   "merc_y": 6607912.9,
   "world_x_km": 2621.788,
   "world_z_km": -392.087,
   "modern_population": 294456
  },
  {
   "name": "Swansea",
   "country": "United Kingdom",
   "lat": 51.629987,
   "lng": -3.950002,
   "merc_x": -439712.2,
   "merc_y": 6733496.9,
   "world_x_km": -1689.712,
   "world_z_km": -266.503,
   "modern_population": 294339
  },
  {
   "name": "Białystok",
   "country": "Poland",
   "lat": 53.150359,
   "lng": 23.169996,
   "merc_x": 2579272.2,
   "merc_y": 7010858.8,
   "world_x_km": 1329.272,
   "world_z_km": 10.859,
   "modern_population": 291855
  },
  {
   "name": "Cagliari",
   "country": "Italy",
   "lat": 39.222398,
   "lng": 9.103982,
   "merc_x": 1013450.6,
   "merc_y": 4753578.4,
   "world_x_km": -236.549,
   "world_z_km": -2246.422,
   "modern_population": 291511
  },
  {
   "name": "Kassel",
   "country": "Germany",
   "lat": 51.300007,
   "lng": 9.50003,
   "merc_x": 1057538.5,
   "merc_y": 6674534.0,
   "world_x_km": -192.461,
   "world_z_km": -325.466,
   "modern_population": 289924
  },
  {
   "name": "Sakarya",
   "country": "Turkey",
   "lat": 40.766661,
   "lng": 30.400003,
   "merc_x": 3384112.9,
   "merc_y": 4977984.9,
   "world_x_km": 2134.113,
   "world_z_km": -2022.015,
   "modern_population": 286787
  },
  {
   "name": "Cádiz",
   "country": "Spain",
   "lat": 36.534991,
   "lng": -6.225005,
   "merc_x": -692964.4,
   "merc_y": 4374487.2,
   "world_x_km": -1942.964,
   "world_z_km": -2625.513,
   "modern_population": 283157
  },
  {
   "name": "Zhytomyr",
   "country": "Ukraine",
   "lat": 50.245575,
   "lng": 28.662168,
   "merc_x": 3190657.9,
   "merc_y": 6488914.2,
   "world_x_km": 1940.658,
   "world_z_km": -511.086,
   "modern_population": 282192
  },
  {
   "name": "Bern",
   "country": "Switzerland",
   "lat": 46.916683,
   "lng": 7.466976,
   "merc_x": 831220.0,
   "merc_y": 5928485.2,
   "world_x_km": -418.78,
   "world_z_km": -1071.515,
   "modern_population": 275329
  },
  {
   "name": "Sétif",
   "country": "Algeria",
   "lat": 36.180026,
   "lng": 5.39997,
   "merc_x": 601121.9,
   "merc_y": 4325421.0,
   "world_x_km": -648.878,
   "world_z_km": -2674.579,
   "modern_population": 274744
  },
  {
   "name": "Pamplona",
   "country": "Spain",
   "lat": 42.820008,
   "lng": -1.649987,
   "merc_x": -183675.7,
   "merc_y": 5284615.2,
   "world_x_km": -1433.676,
   "world_z_km": -1715.385,
   "modern_population": 274545
  },
  {
   "name": "Blackpool",
   "country": "United Kingdom",
   "lat": 53.830395,
   "lng": -3.050005,
   "merc_x": -339525.0,
   "merc_y": 7138100.3,
   "world_x_km": -1589.525,
   "world_z_km": 138.1,
   "modern_population": 272792
  },
  {
   "name": "Venice",
   "country": "Italy",
   "lat": 45.438659,
   "lng": 12.334999,
   "merc_x": 1373125.8,
   "merc_y": 5690845.8,
   "world_x_km": 123.126,
   "world_z_km": -1309.154,
   "modern_population": 270816
  },
  {
   "name": "Münster",
   "country": "Germany",
   "lat": 51.970405,
   "lng": 7.620041,
   "merc_x": 848259.1,
   "merc_y": 6794776.1,
   "world_x_km": -401.741,
   "world_z_km": -205.224,
   "modern_population": 270184
  },
  {
   "name": "Kiel",
   "country": "Germany",
   "lat": 54.33039,
   "lng": 10.130017,
   "merc_x": 1127668.3,
   "merc_y": 7232978.2,
   "world_x_km": -122.332,
   "world_z_km": 232.978,
   "modern_population": 269427
  },
  {
   "name": "Malmö",
   "country": "Sweden",
   "lat": 55.583337,
   "lng": 13.033302,
   "merc_x": 1450860.5,
   "merc_y": 7475913.1,
   "world_x_km": 200.861,
   "world_z_km": 475.913,
   "modern_population": 269349
  },
  {
   "name": "Nancy",
   "country": "France",
   "lat": 48.683681,
   "lng": 6.200024,
   "merc_x": 690183.5,
   "merc_y": 6221358.1,
   "world_x_km": -559.816,
   "world_z_km": -778.642,
   "modern_population": 268976
  },
  {
   "name": "Lausanne",
   "country": "Switzerland",
   "lat": 46.530427,
   "lng": 6.650023,
   "merc_x": 740277.2,
   "merc_y": 5865761.8,
   "world_x_km": -509.723,
   "world_z_km": -1134.238,
   "modern_population": 265702
  },
  {
   "name": "Saint-Étienne",
   "country": "France",
   "lat": 45.430391,
   "lng": 4.380032,
   "merc_x": 487582.9,
   "merc_y": 5689534.1,
   "world_x_km": -762.417,
   "world_z_km": -1310.466,
   "modern_population": 265684
  },
  {
   "name": "Petrozavodsk",
   "country": "Russia",
   "lat": 61.849983,
   "lng": 34.280016,
   "merc_x": 3816033.9,
   "merc_y": 8823658.5,
   "world_x_km": 2566.034,
   "world_z_km": 1823.659,
   "modern_population": 265025
  },
  {
   "name": "Graz",
   "country": "Austria",
   "lat": 47.077758,
   "lng": 15.410005,
   "merc_x": 1715433.9,
   "merc_y": 5954775.4,
   "world_x_km": 465.434,
   "world_z_km": -1045.225,
   "modern_population": 263234
  },
  {
   "name": "Balıkesir",
   "country": "Turkey",
   "lat": 39.650382,
   "lng": 27.890018,
   "merc_x": 3104702.6,
   "merc_y": 4815266.1,
   "world_x_km": 1854.703,
   "world_z_km": -2184.734,
   "modern_population": 261516
  },
  {
   "name": "Adapazarı",
   "country": "Turkey",
   "lat": 40.799976,
   "lng": 30.415032,
   "merc_x": 3385785.9,
   "merc_y": 4982882.8,
   "world_x_km": 2135.786,
   "world_z_km": -2017.117,
   "modern_population": 260109
  },
  {
   "name": "Tampere",
   "country": "Finland",
   "lat": 61.500005,
   "lng": 23.750013,
   "merc_x": 2643839.4,
   "merc_y": 8741546.6,
   "world_x_km": 1393.839,
   "world_z_km": 1741.547,
   "modern_population": 259279
  },
  {
   "name": "Rivne",
   "country": "Ukraine",
   "lat": 50.616586,
   "lng": 26.252806,
   "merc_x": 2922449.0,
   "merc_y": 6553750.4,
   "world_x_km": 1672.449,
   "world_z_km": -446.25,
   "modern_population": 255106
  },
  {
   "name": "Freiburg",
   "country": "Germany",
   "lat": 48.000415,
   "lng": 7.869948,
   "merc_x": 876078.6,
   "merc_y": 6106923.9,
   "world_x_km": -373.921,
   "world_z_km": -893.076,
   "modern_population": 254889
  },
  {
   "name": "Messina",
   "country": "Italy",
   "lat": 38.200471,
   "lng": 15.549996,
   "merc_x": 1731017.6,
   "merc_y": 4607784.5,
   "world_x_km": 481.018,
   "world_z_km": -2392.216,
   "modern_population": 252026
  },
  {
   "name": "Caserta",
   "country": "Italy",
   "lat": 41.05996,
   "lng": 14.337357,
   "merc_x": 1596027.3,
   "merc_y": 5021189.8,
   "world_x_km": 346.027,
   "world_z_km": -1978.81,
   "modern_population": 250000
  },
  {
   "name": "Como",
   "country": "Italy",
   "lat": 45.810006,
   "lng": 9.080004,
   "merc_x": 1010781.4,
   "merc_y": 5749954.6,
   "world_x_km": -239.219,
   "world_z_km": -1250.045,
   "modern_population": 250000
  },
  {
   "name": "Luzern",
   "country": "Switzerland",
   "lat": 47.050421,
   "lng": 8.280001,
   "merc_x": 921725.5,
   "merc_y": 5950307.9,
   "world_x_km": -328.275,
   "world_z_km": -1049.692,
   "modern_population": 250000
  },
  {
   "name": "Niš",
   "country": "Serbia",
   "lat": 43.330416,
   "lng": 21.899996,
   "merc_x": 2437896.4,
   "merc_y": 5362400.5,
   "world_x_km": 1187.896,
   "world_z_km": -1637.599,
   "modern_population": 250000
  },
  {
   "name": "Kirovohrad",
   "country": "Ukraine",
   "lat": 48.504054,
   "lng": 32.260294,
   "merc_x": 3591199.5,
   "merc_y": 6191124.9,
   "world_x_km": 2341.2,
   "world_z_km": -808.875,
   "modern_population": 249454
  },
  {
   "name": "Melun",
   "country": "France",
   "lat": 48.533302,
   "lng": 2.666648,
   "merc_x": 296849.9,
   "merc_y": 6196040.3,
   "world_x_km": -953.15,
   "world_z_km": -803.96,
   "modern_population": 249432
  },
  {
   "name": "Miskolc",
   "country": "Hungary",
   "lat": 48.100409,
   "lng": 20.780013,
   "merc_x": 2313220.5,
   "merc_y": 6123575.6,
   "world_x_km": 1063.22,
   "world_z_km": -876.424,
   "modern_population": 247757
  },
  {
   "name": "Plymouth",
   "country": "United Kingdom",
   "lat": 50.385386,
   "lng": -4.159989,
   "merc_x": -463087.9,
   "merc_y": 6513287.4,
   "world_x_km": -1713.088,
   "world_z_km": -486.713,
   "modern_population": 247297
  },
  {
   "name": "Rzeszów",
   "country": "Poland",
   "lat": 50.07047,
   "lng": 22.000042,
   "merc_x": 2449033.5,
   "merc_y": 6458489.0,
   "world_x_km": 1199.033,
   "world_z_km": -541.511,
   "modern_population": 245686
  },
  {
   "name": "Ternopil",
   "country": "Ukraine",
   "lat": 49.53598,
   "lng": 25.582149,
   "merc_x": 2847791.8,
   "merc_y": 6366300.2,
   "world_x_km": 1597.792,
   "world_z_km": -633.7,
   "modern_population": 244768
  },
  {
   "name": "Braunschweig",
   "country": "Germany",
   "lat": 52.249975,
   "lng": 10.50002,
   "merc_x": 1168856.9,
   "merc_y": 6845451.0,
   "world_x_km": -81.143,
   "world_z_km": -154.549,
   "modern_population": 244715
  },
  {
   "name": "Manisa",
   "country": "Turkey",
   "lat": 38.630393,
   "lng": 27.439968,
   "merc_x": 3054603.3,
   "merc_y": 4668866.0,
   "world_x_km": 1804.603,
   "world_z_km": -2331.134,
   "modern_population": 243971
  },
  {
   "name": "Le Havre",
   "country": "France",
   "lat": 49.504974,
   "lng": 0.10497,
   "merc_x": 11685.2,
   "merc_y": 6360983.4,
   "world_x_km": -1238.315,
   "world_z_km": -639.017,
   "modern_population": 242124
  },
  {
   "name": "Ivano-Frankivsk",
   "country": "Ukraine",
   "lat": 48.934751,
   "lng": 24.709386,
   "merc_x": 2750636.3,
   "merc_y": 6263797.2,
   "world_x_km": 1500.636,
   "world_z_km": -736.203,
   "modern_population": 241239
  },
  {
   "name": "Fürth",
   "country": "Germany",
   "lat": 49.470015,
   "lng": 10.99999,
   "merc_x": 1224513.3,
   "merc_y": 6354992.7,
   "world_x_km": -25.487,
   "world_z_km": -645.007,
   "modern_population": 237844
  },
  {
   "name": "Århus",
   "country": "Denmark",
   "lat": 56.157204,
   "lng": 10.210684,
   "merc_x": 1136648.1,
   "merc_y": 7589774.4,
   "world_x_km": -113.352,
   "world_z_km": 589.774,
   "modern_population": 237551
  },
  {
   "name": "Košice",
   "country": "Slovakia",
   "lat": 48.730448,
   "lng": 21.25001,
   "merc_x": 2365540.3,
   "merc_y": 6229247.2,
   "world_x_km": 1115.54,
   "world_z_km": -770.753,
   "modern_population": 236563
  },
  {
   "name": "Tours",
   "country": "France",
   "lat": 47.380375,
   "lng": 0.699947,
   "merc_x": 77917.7,
   "merc_y": 6004383.5,
   "world_x_km": -1172.082,
   "world_z_km": -995.617,
   "modern_population": 236096
  },
  {
   "name": "Luton",
   "country": "United Kingdom",
   "lat": 51.880359,
   "lng": -0.420011,
   "merc_x": -46755.4,
   "merc_y": 6778521.7,
   "world_x_km": -1296.755,
   "world_z_km": -221.478,
   "modern_population": 235958
  },
  {
   "name": "Oviedo",
   "country": "Spain",
   "lat": 43.350492,
   "lng": -5.829991,
   "merc_x": -648991.6,
   "merc_y": 5365473.4,
   "world_x_km": -1898.992,
   "world_z_km": -1634.527,
   "modern_population": 235651
  },
  {
   "name": "Lübeck",
   "country": "Germany",
   "lat": 53.870393,
   "lng": 10.669984,
   "merc_x": 1187777.2,
   "merc_y": 7145648.4,
   "world_x_km": -62.223,
   "world_z_km": 145.648,
   "modern_population": 235390
  },
  {
   "name": "Clermont-Ferrand",
   "country": "France",
   "lat": 45.779982,
   "lng": 3.080008,
   "merc_x": 342864.9,
   "merc_y": 5745161.0,
   "world_x_km": -907.135,
   "world_z_km": -1254.839,
   "modern_population": 233050
  },
  {
   "name": "Kremenchuk",
   "country": "Ukraine",
   "lat": 49.083527,
   "lng": 33.429629,
   "merc_x": 3721369.3,
   "merc_y": 6289046.1,
   "world_x_km": 2471.369,
   "world_z_km": -710.954,
   "modern_population": 232742
  },
  {
   "name": "Ploiești",
   "country": "Romania",
   "lat": 44.946906,
   "lng": 26.036488,
   "merc_x": 2898368.6,
   "merc_y": 5613166.8,
   "world_x_km": 1648.369,
   "world_z_km": -1386.833,
   "modern_population": 232542
  },
  {
   "name": "Debrecen",
   "country": "Hungary",
   "lat": 47.53047,
   "lng": 21.630039,
   "merc_x": 2407844.9,
   "merc_y": 6029094.2,
   "world_x_km": 1157.845,
   "world_z_km": -970.906,
   "modern_population": 231286
  },
  {
   "name": "Osnabrück",
   "country": "Germany",
   "lat": 52.280438,
   "lng": 8.049989,
   "merc_x": 896120.7,
   "merc_y": 6850991.9,
   "world_x_km": -353.879,
   "world_z_km": -149.008,
   "modern_population": 231268
  },
  {
   "name": "Magdeburg",
   "country": "Germany",
   "lat": 52.130421,
   "lng": 11.620004,
   "merc_x": 1293532.9,
   "merc_y": 6823741.7,
   "world_x_km": 43.533,
   "world_z_km": -176.258,
   "modern_population": 229826
  },
  {
   "name": "Kolpino",
   "country": "Russia",
   "lat": 59.730009,
   "lng": 30.650005,
   "merc_x": 3411942.9,
   "merc_y": 8339871.1,
   "world_x_km": 2161.943,
   "world_z_km": 1339.871,
   "modern_population": 225801
  },
  {
   "name": "Novi Sad",
   "country": "Serbia",
   "lat": 45.250376,
   "lng": 19.849941,
   "merc_x": 2209685.3,
   "merc_y": 5661024.6,
   "world_x_km": 959.685,
   "world_z_km": -1338.975,
   "modern_population": 225457
  },
  {
   "name": "Skikda",
   "country": "Algeria",
   "lat": 36.880422,
   "lng": 6.899982,
   "merc_x": 768102.5,
   "merc_y": 4422452.2,
   "world_x_km": -481.898,
   "world_z_km": -2577.548,
   "modern_population": 225181
  },
  {
   "name": "Vitoria",
   "country": "Spain",
   "lat": 42.84998,
   "lng": -2.669977,
   "merc_x": -297220.5,
   "merc_y": 5289165.1,
   "world_x_km": -1547.22,
   "world_z_km": -1710.835,
   "modern_population": 224578
  },
  {
   "name": "Banja Luka",
   "country": "Bosnia and Herzegovina",
   "lat": 44.780405,
   "lng": 17.179974,
   "merc_x": 1912466.0,
   "merc_y": 5587016.7,
   "world_x_km": 662.466,
   "world_z_km": -1412.983,
   "modern_population": 221738
  },
  {
   "name": "Babruysk",
   "country": "Belarus",
   "lat": 53.126562,
   "lng": 29.192781,
   "merc_x": 3249725.5,
   "merc_y": 7006442.9,
   "world_x_km": 1999.726,
   "world_z_km": 6.443,
   "modern_population": 220517
  },
  {
   "name": "Velikiy Novgorod",
   "country": "Russia",
   "lat": 58.499981,
   "lng": 31.330015,
   "merc_x": 3487641.3,
   "merc_y": 8073089.6,
   "world_x_km": 2237.641,
   "world_z_km": 1073.09,
   "modern_population": 218717
  },
  {
   "name": "Potsdam",
   "country": "Germany",
   "lat": 52.400405,
   "lng": 13.069993,
   "merc_x": 1454945.0,
   "merc_y": 6872850.1,
   "world_x_km": 204.945,
   "world_z_km": -127.15,
   "modern_population": 218095
  },
  {
   "name": "Orléans",
   "country": "France",
   "lat": 47.900421,
   "lng": 1.900028,
   "merc_x": 211510.1,
   "merc_y": 6090304.4,
   "world_x_km": -1038.49,
   "world_z_km": -909.696,
   "modern_population": 217301
  },
  {
   "name": "Groningen",
   "country": "Netherlands",
   "lat": 53.220407,
   "lng": 6.580001,
   "merc_x": 732482.4,
   "merc_y": 7023871.8,
   "world_x_km": -517.518,
   "world_z_km": 23.872,
   "modern_population": 216688
  },
  {
   "name": "Trieste",
   "country": "Italy",
   "lat": 45.650378,
   "lng": 13.800026,
   "merc_x": 1536211.9,
   "merc_y": 5724498.0,
   "world_x_km": 286.212,
   "world_z_km": -1275.502,
   "modern_population": 216035
  },
  {
   "name": "Kielce",
   "country": "Poland",
   "lat": 50.890394,
   "lng": 20.66002,
   "merc_x": 2299862.9,
   "merc_y": 6601928.5,
   "world_x_km": 1049.863,
   "world_z_km": -398.071,
   "modern_population": 215733
  },
  {
   "name": "Mulhouse",
   "country": "France",
   "lat": 47.750405,
   "lng": 7.34998,
   "merc_x": 818196.0,
   "merc_y": 6065431.1,
   "world_x_km": -431.804,
   "world_z_km": -934.569,
   "modern_population": 215454
  },
  {
   "name": "Split",
   "country": "Croatia",
   "lat": 43.520404,
   "lng": 16.469992,
   "merc_x": 1833431.1,
   "merc_y": 5391521.1,
   "world_x_km": 583.431,
   "world_z_km": -1608.479,
   "modern_population": 214741
  },
  {
   "name": "Oradea",
   "country": "Romania",
   "lat": 47.049982,
   "lng": 21.919995,
   "merc_x": 2440122.7,
   "merc_y": 5950236.2,
   "world_x_km": 1190.123,
   "world_z_km": -1049.764,
   "modern_population": 213830
  },
  {
   "name": "Lutsk",
   "country": "Ukraine",
   "lat": 50.747198,
   "lng": 25.333379,
   "merc_x": 2820098.9,
   "merc_y": 6576697.2,
   "world_x_km": 1570.099,
   "world_z_km": -423.303,
   "modern_population": 213661
  },
  {
   "name": "Bergen",
   "country": "Norway",
   "lat": 60.391002,
   "lng": 5.324522,
   "merc_x": 592723.1,
   "merc_y": 8487309.4,
   "world_x_km": -657.277,
   "world_z_km": 1487.309,
   "modern_population": 213585
  },
  {
   "name": "Brăila",
   "country": "Romania",
   "lat": 45.291996,
   "lng": 27.969004,
   "merc_x": 3113495.3,
   "merc_y": 5667608.0,
   "world_x_km": 1863.495,
   "world_z_km": -1332.392,
   "modern_population": 213569
  },
  {
   "name": "Kırıkkale",
   "country": "Turkey",
   "lat": 39.85037,
   "lng": 33.529984,
   "merc_x": 3732540.7,
   "merc_y": 4844222.2,
   "world_x_km": 2482.541,
   "world_z_km": -2155.778,
   "modern_population": 211138
  },
  {
   "name": "Rennes",
   "country": "France",
   "lat": 48.100021,
   "lng": -1.670012,
   "merc_x": -185904.9,
   "merc_y": 6123510.9,
   "world_x_km": -1435.905,
   "world_z_km": -876.489,
   "modern_population": 209375
  },
  {
   "name": "Santander",
   "country": "Spain",
   "lat": 43.380465,
   "lng": -3.799985,
   "merc_x": -423012.4,
   "merc_y": 5370063.0,
   "world_x_km": -1673.012,
   "world_z_km": -1629.937,
   "modern_population": 208763
  },
  {
   "name": "Salzburg",
   "country": "Austria",
   "lat": 47.810478,
   "lng": 13.04002,
   "merc_x": 1451608.4,
   "merc_y": 6075382.8,
   "world_x_km": 201.608,
   "world_z_km": -924.617,
   "modern_population": 206279
  },
  {
   "name": "Pisa",
   "country": "Italy",
   "lat": 43.72047,
   "lng": 10.400026,
   "merc_x": 1157725.6,
   "merc_y": 5422285.7,
   "world_x_km": -92.274,
   "world_z_km": -1577.714,
   "modern_population": 203336
  },
  {
   "name": "Erfurt",
   "country": "Germany",
   "lat": 50.970053,
   "lng": 11.029962,
   "merc_x": 1227849.8,
   "merc_y": 6615998.2,
   "world_x_km": -22.15,
   "world_z_km": -384.002,
   "modern_population": 203254
  },
  {
   "name": "Rostock",
   "country": "Germany",
   "lat": 54.070381,
   "lng": 12.149997,
   "merc_x": 1352531.5,
   "merc_y": 7183496.9,
   "world_x_km": 102.531,
   "world_z_km": 183.497,
   "modern_population": 203080
  },
  {
   "name": "Taranto",
   "country": "Italy",
   "lat": 40.508392,
   "lng": 17.229997,
   "merc_x": 1918034.5,
   "merc_y": 4940097.8,
   "world_x_km": 668.034,
   "world_z_km": -2059.902,
   "modern_population": 202033
  },
  {
   "name": "Pskov",
   "country": "Russia",
   "lat": 57.829996,
   "lng": 28.32994,
   "merc_x": 3153674.5,
   "merc_y": 7931689.5,
   "world_x_km": 1903.674,
   "world_z_km": 931.689,
   "modern_population": 201990
  },
  {
   "name": "Cartagena",
   "country": "Spain",
   "lat": 37.60043,
   "lng": -0.980028,
   "merc_x": -109096.2,
   "merc_y": 4523132.7,
   "world_x_km": -1359.096,
   "world_z_km": -2476.867,
   "modern_population": 201274
  },
  {
   "name": "Bergamo",
   "country": "Italy",
   "lat": 45.7004,
   "lng": 9.669993,
   "merc_x": 1076458.7,
   "merc_y": 5732467.4,
   "world_x_km": -173.541,
   "world_z_km": -1267.533,
   "modern_population": 200000
  },
  {
   "name": "Bacău",
   "country": "Romania",
   "lat": 46.578435,
   "lng": 26.919638,
   "merc_x": 2996680.4,
   "merc_y": 5873533.4,
   "world_x_km": 1746.68,
   "world_z_km": -1126.467,
   "modern_population": 199668
  },
  {
   "name": "Bila Tserkva",
   "country": "Ukraine",
   "lat": 49.774312,
   "lng": 30.130915,
   "merc_x": 3354158.1,
   "merc_y": 6407282.0,
   "world_x_km": 2104.158,
   "world_z_km": -592.718,
   "modern_population": 199163
  },
  {
   "name": "Aydın",
   "country": "Turkey",
   "lat": 37.849975,
   "lng": 27.850021,
   "merc_x": 3100250.2,
   "merc_y": 4558253.9,
   "world_x_km": 1850.25,
   "world_z_km": -2441.746,
   "modern_population": 198857
  },
  {
   "name": "Reims",
   "country": "France",
   "lat": 49.25039,
   "lng": 4.029976,
   "merc_x": 448614.9,
   "merc_y": 6317454.6,
   "world_x_km": -801.385,
   "world_z_km": -682.545,
   "modern_population": 196565
  },
  {
   "name": "Burgas",
   "country": "Bulgaria",
   "lat": 42.5146,
   "lng": 27.474643,
   "merc_x": 3058463.3,
   "merc_y": 5238378.5,
   "world_x_km": 1808.463,
   "world_z_km": -1761.622,
   "modern_population": 195966
  },
  {
   "name": "Oxford",
   "country": "United Kingdom",
   "lat": 51.770418,
   "lng": -1.249986,
   "merc_x": -139147.8,
   "merc_y": 6758720.1,
   "world_x_km": -1389.148,
   "world_z_km": -241.28,
   "modern_population": 192796
  },
  {
   "name": "Klaipėda",
   "country": "Lithuania",
   "lat": 55.720409,
   "lng": 21.119941,
   "merc_x": 2351061.1,
   "merc_y": 7502957.1,
   "world_x_km": 1101.061,
   "world_z_km": 502.957,
   "modern_population": 192307
  },
  {
   "name": "Norwich",
   "country": "United Kingdom",
   "lat": 52.630365,
   "lng": 1.300013,
   "merc_x": 144716.8,
   "merc_y": 6914916.0,
   "world_x_km": -1105.283,
   "world_z_km": -85.084,
   "modern_population": 190756
  },
  {
   "name": "Caen",
   "country": "France",
   "lat": 49.183754,
   "lng": -0.349989,
   "merc_x": -38960.6,
   "merc_y": 6306098.3,
   "world_x_km": -1288.961,
   "world_z_km": -693.902,
   "modern_population": 190099
  },
  {
   "name": "Aberdeen",
   "country": "United Kingdom",
   "lat": 57.170398,
   "lng": -2.079987,
   "merc_x": -231543.1,
   "merc_y": 7795026.6,
   "world_x_km": -1481.543,
   "world_z_km": 795.027,
   "modern_population": 189364
  },
  {
   "name": "Cork",
   "country": "Ireland",
   "lat": 51.898601,
   "lng": -8.495771,
   "merc_x": -945744.9,
   "merc_y": 6781811.9,
   "world_x_km": -2195.745,
   "world_z_km": -218.188,
   "modern_population": 188907
  },
  {
   "name": "Angers",
   "country": "France",
   "lat": 47.480008,
   "lng": -0.53003,
   "merc_x": -59002.7,
   "merc_y": 6020778.6,
   "world_x_km": -1309.003,
   "world_z_km": -979.221,
   "modern_population": 188380
  },
  {
   "name": "Mostaganem",
   "country": "Algeria",
   "lat": 35.940376,
   "lng": 0.089984,
   "merc_x": 10017.0,
   "merc_y": 4292420.3,
   "world_x_km": -1239.983,
   "world_z_km": -2707.58,
   "modern_population": 188354
  },
  {
   "name": "Szeged",
   "country": "Hungary",
   "lat": 46.250393,
   "lng": 20.150026,
   "merc_x": 2243090.6,
   "merc_y": 5820566.1,
   "world_x_km": 993.091,
   "world_z_km": -1179.434,
   "modern_population": 187765
  },
  {
   "name": "Gibraltar",
   "country": "Gibraltar",
   "lat": 36.132435,
   "lng": -5.378075,
   "merc_x": -598684.6,
   "merc_y": 4318859.6,
   "world_x_km": -1848.685,
   "world_z_km": -2681.14,
   "modern_population": 187083
  },
  {
   "name": "Olsztyn",
   "country": "Poland",
   "lat": 53.800035,
   "lng": 20.480031,
   "merc_x": 2279826.6,
   "merc_y": 7132375.9,
   "world_x_km": 1029.827,
   "world_z_km": 132.376,
   "modern_population": 186670
  },
  {
   "name": "Pécs",
   "country": "Hungary",
   "lat": 46.080429,
   "lng": 18.220014,
   "merc_x": 2028242.7,
   "merc_y": 5793247.4,
   "world_x_km": 778.243,
   "world_z_km": -1206.753,
   "modern_population": 186262
  },
  {
   "name": "Marbella",
   "country": "Spain",
   "lat": 36.51662,
   "lng": -4.88333,
   "merc_x": -543609.8,
   "merc_y": 4371942.3,
   "world_x_km": -1793.61,
   "world_z_km": -2628.058,
   "modern_population": 186131
  },
  {
   "name": "Kütahya",
   "country": "Turkey",
   "lat": 39.420009,
   "lng": 29.929997,
   "merc_x": 3331792.0,
   "merc_y": 4782014.1,
   "world_x_km": 2081.792,
   "world_z_km": -2217.986,
   "modern_population": 185008
  },
  {
   "name": "Mainz",
   "country": "Germany",
   "lat": 49.982473,
   "lng": 8.273219,
   "merc_x": 920970.5,
   "merc_y": 6443241.0,
   "world_x_km": -329.029,
   "world_z_km": -556.759,
   "modern_population": 184997
  },
  {
   "name": "Ruse",
   "country": "Bulgaria",
   "lat": 43.853691,
   "lng": 25.973339,
   "merc_x": 2891338.9,
   "merc_y": 5442828.4,
   "world_x_km": 1641.339,
   "world_z_km": -1557.172,
   "modern_population": 184270
  },
  {
   "name": "Corum",
   "country": "Turkey",
   "lat": 40.519993,
   "lng": 34.950001,
   "merc_x": 3890616.3,
   "merc_y": 4941796.5,
   "world_x_km": 2640.616,
   "world_z_km": -2058.204,
   "modern_population": 183418
  },
  {
   "name": "Mataró",
   "country": "Spain",
   "lat": 41.539957,
   "lng": 2.450021,
   "merc_x": 272735.1,
   "merc_y": 5092314.4,
   "world_x_km": -977.265,
   "world_z_km": -1907.686,
   "modern_population": 183293
  },
  {
   "name": "Castello",
   "country": "Spain",
   "lat": 39.970414,
   "lng": -0.050008,
   "merc_x": -5566.9,
   "merc_y": 4861643.9,
   "world_x_km": -1255.567,
   "world_z_km": -2138.356,
   "modern_population": 180610
  },
  {
   "name": "Reggio di Calabria",
   "country": "Italy",
   "lat": 38.114998,
   "lng": 15.64136,
   "merc_x": 1741188.2,
   "merc_y": 4595683.9,
   "world_x_km": 491.188,
   "world_z_km": -2404.316,
   "modern_population": 180353
  },
  {
   "name": "Almería",
   "country": "Spain",
   "lat": 36.830348,
   "lng": -2.429992,
   "merc_x": -270505.5,
   "merc_y": 4415485.8,
   "world_x_km": -1520.505,
   "world_z_km": -2584.514,
   "modern_population": 179405
  },
  {
   "name": "Treviso",
   "country": "Italy",
   "lat": 45.670015,
   "lng": 12.240018,
   "merc_x": 1362552.6,
   "merc_y": 5727625.7,
   "world_x_km": 112.553,
   "world_z_km": -1272.374,
   "modern_population": 177309
  },
  {
   "name": "Nyíregyháza",
   "country": "Hungary",
   "lat": 47.965327,
   "lng": 21.718715,
   "merc_x": 2417716.3,
   "merc_y": 6101088.4,
   "world_x_km": 1167.716,
   "world_z_km": -898.912,
   "modern_population": 176880
  },
  {
   "name": "Turku",
   "country": "Finland",
   "lat": 60.453867,
   "lng": 22.254962,
   "merc_x": 2477411.0,
   "merc_y": 8501487.1,
   "world_x_km": 1227.411,
   "world_z_km": 1501.487,
   "modern_population": 175945
  },
  {
   "name": "Modena",
   "country": "Italy",
   "lat": 44.650025,
   "lng": 10.919995,
   "merc_x": 1215608.3,
   "merc_y": 5566592.3,
   "world_x_km": -34.392,
   "world_z_km": -1433.408,
   "modern_population": 175502
  },
  {
   "name": "Stavanger",
   "country": "Norway",
   "lat": 58.970004,
   "lng": 5.680004,
   "merc_x": 632295.2,
   "merc_y": 8173906.4,
   "world_x_km": -617.705,
   "world_z_km": 1173.906,
   "modern_population": 173132
  },
  {
   "name": "Ulm",
   "country": "Germany",
   "lat": 48.400391,
   "lng": 9.999999,
   "merc_x": 1113194.8,
   "merc_y": 6173726.0,
   "world_x_km": -136.805,
   "world_z_km": -826.274,
   "modern_population": 172955
  },
  {
   "name": "Isparta",
   "country": "Turkey",
   "lat": 37.76998,
   "lng": 30.529961,
   "merc_x": 3398579.7,
   "merc_y": 4546982.5,
   "world_x_km": 2148.58,
   "world_z_km": -2453.018,
   "modern_population": 172334
  },
  {
   "name": "Prizren",
   "country": "Kosovo",
   "lat": 42.22932,
   "lng": 20.750092,
   "merc_x": 2309889.7,
   "merc_y": 5195392.6,
   "world_x_km": 1059.89,
   "world_z_km": -1804.607,
   "modern_population": 171464
  },
  {
   "name": "Kragujevac",
   "country": "Serbia",
   "lat": 44.01996,
   "lng": 20.920004,
   "merc_x": 2328804.2,
   "merc_y": 5468531.6,
   "world_x_km": 1078.804,
   "world_z_km": -1531.468,
   "modern_population": 171197
  },
  {
   "name": "Pitești",
   "country": "Romania",
   "lat": 44.856318,
   "lng": 24.875835,
   "merc_x": 2769165.3,
   "merc_y": 5598930.0,
   "world_x_km": 1519.165,
   "world_z_km": -1401.07,
   "modern_population": 171021
  },
  {
   "name": "Rijeka",
   "country": "Croatia",
   "lat": 45.329984,
   "lng": 14.450012,
   "merc_x": 1608568.0,
   "merc_y": 5673621.2,
   "world_x_km": 358.568,
   "world_z_km": -1326.379,
   "modern_population": 170992
  },
  {
   "name": "Burgos",
   "country": "Spain",
   "lat": 42.350398,
   "lng": -3.679967,
   "merc_x": -409652.1,
   "merc_y": 5213612.7,
   "world_x_km": -1659.652,
   "world_z_km": -1786.387,
   "modern_population": 170183
  },
  {
   "name": "Čačak",
   "country": "Serbia",
   "lat": 43.889736,
   "lng": 20.330118,
   "merc_x": 2263138.4,
   "merc_y": 5448394.4,
   "world_x_km": 1013.138,
   "world_z_km": -1551.606,
   "modern_population": 170000
  },
  {
   "name": "Dijon",
   "country": "France",
   "lat": 47.330404,
   "lng": 5.030018,
   "merc_x": 559939.0,
   "merc_y": 5996172.2,
   "world_x_km": -690.061,
   "world_z_km": -1003.828,
   "modern_population": 169946
  },
  {
   "name": "Nîmes",
   "country": "France",
   "lat": 43.830385,
   "lng": 4.350008,
   "merc_x": 484240.7,
   "merc_y": 5439231.3,
   "world_x_km": -765.759,
   "world_z_km": -1560.769,
   "modern_population": 169547
  },
  {
   "name": "Arad",
   "country": "Romania",
   "lat": 46.17001,
   "lng": 21.31998,
   "merc_x": 2373329.3,
   "merc_y": 5807635.4,
   "world_x_km": 1123.329,
   "world_z_km": -1192.365,
   "modern_population": 169065
  },
  {
   "name": "Baranavichy",
   "country": "Belarus",
   "lat": 53.136846,
   "lng": 26.01344,
   "merc_x": 2895802.9,
   "merc_y": 7008351.0,
   "world_x_km": 1645.803,
   "world_z_km": 8.351,
   "modern_population": 168772
  },
  {
   "name": "Würzburg",
   "country": "Germany",
   "lat": 49.800434,
   "lng": 9.950028,
   "merc_x": 1107632.1,
   "merc_y": 6411786.0,
   "world_x_km": -142.368,
   "world_z_km": -588.214,
   "modern_population": 168561
  },
  {
   "name": "Oldenburg",
   "country": "Germany",
   "lat": 53.129999,
   "lng": 8.220004,
   "merc_x": 915046.7,
   "merc_y": 7007080.5,
   "world_x_km": -334.953,
   "world_z_km": 7.081,
   "modern_population": 167458
  },
  {
   "name": "Parma",
   "country": "Italy",
   "lat": 44.810429,
   "lng": 10.320031,
   "merc_x": 1148820.6,
   "merc_y": 5591726.6,
   "world_x_km": -101.179,
   "world_z_km": -1408.273,
   "modern_population": 166011
  },
  {
   "name": "Elbasan",
   "country": "Albania",
   "lat": 41.121507,
   "lng": 20.083828,
   "merc_x": 2235721.5,
   "merc_y": 5030280.5,
   "world_x_km": 985.722,
   "world_z_km": -1969.72,
   "modern_population": 165010
  },
  {
   "name": "Zenica",
   "country": "Bosnia and Herzegovina",
   "lat": 44.219974,
   "lng": 17.919981,
   "merc_x": 1994843.2,
   "merc_y": 5499547.0,
   "world_x_km": 744.843,
   "world_z_km": -1500.453,
   "modern_population": 164423
  },
  {
   "name": "Regensburg",
   "country": "Germany",
   "lat": 49.020405,
   "lng": 12.120025,
   "merc_x": 1349195.0,
   "merc_y": 6278324.4,
   "world_x_km": 99.195,
   "world_z_km": -721.676,
   "modern_population": 164359
  },
  {
   "name": "Pizen",
   "country": "Czechia",
   "lat": 49.740438,
   "lng": 13.360001,
   "merc_x": 1487228.5,
   "merc_y": 6401445.0,
   "world_x_km": 237.229,
   "world_z_km": -598.555,
   "modern_population": 164180
  },
  {
   "name": "Patra",
   "country": "Greece",
   "lat": 38.230004,
   "lng": 21.729981,
   "merc_x": 2418970.4,
   "merc_y": 4611968.8,
   "world_x_km": 1168.97,
   "world_z_km": -2388.031,
   "modern_population": 163360
  },
  {
   "name": "Ingolstadt",
   "country": "Germany",
   "lat": 48.77042,
   "lng": 11.449988,
   "merc_x": 1274606.8,
   "merc_y": 6235995.9,
   "world_x_km": 24.607,
   "world_z_km": -764.004,
   "modern_population": 163325
  },
  {
   "name": "Mostar",
   "country": "Bosnia and Herzegovina",
   "lat": 43.350492,
   "lng": 17.820039,
   "merc_x": 1983717.7,
   "merc_y": 5365473.4,
   "world_x_km": 733.718,
   "world_z_km": -1634.527,
   "modern_population": 163067
  },
  {
   "name": "Lecce",
   "country": "Italy",
   "lat": 40.36039,
   "lng": 18.149993,
   "merc_x": 2020448.0,
   "merc_y": 4918452.2,
   "world_x_km": 770.448,
   "world_z_km": -2081.548,
   "modern_population": 162582
  },
  {
   "name": "Salamanca",
   "country": "Spain",
   "lat": 40.970405,
   "lng": -5.67,
   "merc_x": -631181.5,
   "merc_y": 5007977.4,
   "world_x_km": -1881.182,
   "world_z_km": -1992.023,
   "modern_population": 162353
  },
  {
   "name": "York",
   "country": "United Kingdom",
   "lat": 53.970387,
   "lng": -1.080022,
   "merc_x": -120227.5,
   "merc_y": 7164549.9,
   "world_x_km": -1370.227,
   "world_z_km": 164.55,
   "modern_population": 158947
  },
  {
   "name": "Odense",
   "country": "Denmark",
   "lat": 55.400377,
   "lng": 10.383335,
   "merc_x": 1155867.6,
   "merc_y": 7439962.1,
   "world_x_km": -94.132,
   "world_z_km": 439.962,
   "modern_population": 158222
  },
  {
   "name": "Albacete",
   "country": "Spain",
   "lat": 39.000344,
   "lng": -1.87,
   "merc_x": -208167.4,
   "merc_y": 4721720.8,
   "world_x_km": -1458.167,
   "world_z_km": -2278.279,
   "modern_population": 158094
  },
  {
   "name": "Melitopol",
   "country": "Ukraine",
   "lat": 46.837825,
   "lng": 35.377468,
   "merc_x": 3938201.7,
   "merc_y": 5915643.0,
   "world_x_km": 2688.202,
   "world_z_km": -1084.357,
   "modern_population": 158000
  },
  {
   "name": "Tiraspol",
   "country": "Moldova",
   "lat": 46.853095,
   "lng": 29.639989,
   "merc_x": 3299508.5,
   "merc_y": 5918128.3,
   "world_x_km": 2049.508,
   "world_z_km": -1081.872,
   "modern_population": 157000
  },
  {
   "name": "Afyon",
   "country": "Turkey",
   "lat": 38.750385,
   "lng": 30.550011,
   "merc_x": 3400811.7,
   "merc_y": 4685979.2,
   "world_x_km": 2150.812,
   "world_z_km": -2314.021,
   "modern_population": 156992
  },
  {
   "name": "Zonguldak",
   "country": "Turkey",
   "lat": 41.430377,
   "lng": 31.780013,
   "merc_x": 3537734.9,
   "merc_y": 5076030.9,
   "world_x_km": 2287.735,
   "world_z_km": -1923.969,
   "modern_population": 156918
  },
  {
   "name": "Livorno",
   "country": "Italy",
   "lat": 43.551134,
   "lng": 10.302275,
   "merc_x": 1146844.0,
   "merc_y": 5396239.9,
   "world_x_km": -103.156,
   "world_z_km": -1603.76,
   "modern_population": 156274
  },
  {
   "name": "Shkodër",
   "country": "Albania",
   "lat": 42.068452,
   "lng": 19.51885,
   "merc_x": 2172828.4,
   "merc_y": 5171238.7,
   "world_x_km": 922.828,
   "world_z_km": -1828.761,
   "modern_population": 155767
  },
  {
   "name": "Sibiu",
   "country": "Romania",
   "lat": 45.797113,
   "lng": 24.137121,
   "merc_x": 2686932.0,
   "merc_y": 5747895.8,
   "world_x_km": 1436.932,
   "world_z_km": -1252.104,
   "modern_population": 155565
  },
  {
   "name": "Barysaw",
   "country": "Belarus",
   "lat": 54.226004,
   "lng": 28.492152,
   "merc_x": 3171731.9,
   "merc_y": 7213075.5,
   "world_x_km": 1921.732,
   "world_z_km": 213.075,
   "modern_population": 155389
  },
  {
   "name": "Innsbruck",
   "country": "Austria",
   "lat": 47.280407,
   "lng": 11.409991,
   "merc_x": 1270154.4,
   "merc_y": 5987964.3,
   "world_x_km": 20.154,
   "world_z_km": -1012.036,
   "modern_population": 155214
  },
  {
   "name": "Foggia",
   "country": "Italy",
   "lat": 41.460478,
   "lng": 15.55997,
   "merc_x": 1732127.9,
   "merc_y": 5080501.2,
   "world_x_km": 482.128,
   "world_z_km": -1919.499,
   "modern_population": 155203
  },
  {
   "name": "Uşak",
   "country": "Turkey",
   "lat": 38.680364,
   "lng": 29.420002,
   "merc_x": 3275019.6,
   "merc_y": 4675989.3,
   "world_x_km": 2025.02,
   "world_z_km": -2324.011,
   "modern_population": 152862
  },
  {
   "name": "Limoges",
   "country": "France",
   "lat": 45.829979,
   "lng": 1.249991,
   "merc_x": 139148.4,
   "merc_y": 5753145.0,
   "world_x_km": -1110.852,
   "world_z_km": -1246.855,
   "modern_population": 152199
  },
  {
   "name": "Dundee",
   "country": "United Kingdom",
   "lat": 56.470389,
   "lng": -3.000008,
   "merc_x": -333959.4,
   "merc_y": 7652632.4,
   "world_x_km": -1583.959,
   "world_z_km": 652.632,
   "modern_population": 151592
  },
  {
   "name": "Bălți",
   "country": "Moldova",
   "lat": 47.759086,
   "lng": 27.905315,
   "merc_x": 3106405.5,
   "merc_y": 6066868.5,
   "world_x_km": 1856.405,
   "world_z_km": -933.131,
   "modern_population": 151355
  },
  {
   "name": "Uzhgorod",
   "country": "Ukraine",
   "lat": 48.629989,
   "lng": 22.250001,
   "merc_x": 2476858.8,
   "merc_y": 6212309.9,
   "world_x_km": 1226.859,
   "world_z_km": -787.69,
   "modern_population": 150832
  },
  {
   "name": "M'sila",
   "country": "Algeria",
   "lat": 35.700003,
   "lng": 4.545001,
   "merc_x": 505947.2,
   "merc_y": 4259420.4,
   "world_x_km": -744.053,
   "world_z_km": -2740.58,
   "modern_population": 150000
  },
  {
   "name": "Tirgu Mures",
   "country": "Romania",
   "lat": 46.558203,
   "lng": 24.557819,
   "merc_x": 2733763.9,
   "merc_y": 5870257.4,
   "world_x_km": 1483.764,
   "world_z_km": -1129.743,
   "modern_population": 149433
  },
  {
   "name": "Perugia",
   "country": "Italy",
   "lat": 43.110378,
   "lng": 12.389983,
   "merc_x": 1379246.6,
   "merc_y": 5328787.6,
   "world_x_km": 129.247,
   "world_z_km": -1671.212,
   "modern_population": 149125
  },
  {
   "name": "Jijel",
   "country": "Algeria",
   "lat": 36.821997,
   "lng": 5.766004,
   "merc_x": 641868.6,
   "merc_y": 4414324.4,
   "world_x_km": -608.131,
   "world_z_km": -2585.676,
   "modern_population": 148000
  },
  {
   "name": "Médéa",
   "country": "Algeria",
   "lat": 36.270408,
   "lng": 2.770001,
   "merc_x": 308355.1,
   "merc_y": 4337893.2,
   "world_x_km": -941.645,
   "world_z_km": -2662.107,
   "modern_population": 147707
  },
  {
   "name": "Trondheim",
   "country": "Norway",
   "lat": 63.416658,
   "lng": 10.416666,
   "merc_x": 1159578.0,
   "merc_y": 9203153.4,
   "world_x_km": -90.422,
   "world_z_km": 2203.153,
   "modern_population": 147139
  },
  {
   "name": "Aix-en-Provence",
   "country": "France",
   "lat": 43.519991,
   "lng": 5.449993,
   "merc_x": 606690.4,
   "merc_y": 5391457.7,
   "world_x_km": -643.31,
   "world_z_km": -1608.542,
   "modern_population": 146821
  },
  {
   "name": "Perpignan",
   "country": "France",
   "lat": 42.699989,
   "lng": 2.899967,
   "merc_x": 322822.8,
   "merc_y": 5266418.0,
   "world_x_km": -927.177,
   "world_z_km": -1733.582,
   "modern_population": 146620
  },
  {
   "name": "Brugge",
   "country": "Belgium",
   "lat": 51.220374,
   "lng": 3.230025,
   "merc_x": 359564.7,
   "merc_y": 6660368.3,
   "world_x_km": -890.435,
   "world_z_km": -339.632,
   "modern_population": 146469
  },
  {
   "name": "Podgorica",
   "country": "Montenegro",
   "lat": 42.465973,
   "lng": 19.266307,
   "merc_x": 2144715.5,
   "merc_y": 5231037.5,
   "world_x_km": 894.715,
   "world_z_km": -1768.962,
   "modern_population": 145850
  },
  {
   "name": "Biarritz",
   "country": "France",
   "lat": 43.473275,
   "lng": -1.561595,
   "merc_x": -173836.0,
   "merc_y": 5384288.8,
   "world_x_km": -1423.836,
   "world_z_km": -1615.711,
   "modern_population": 145348
  },
  {
   "name": "Brest",
   "country": "France",
   "lat": 48.390443,
   "lng": -4.495008,
   "merc_x": -500382.0,
   "merc_y": 6172058.2,
   "world_x_km": -1750.382,
   "world_z_km": -827.942,
   "modern_population": 144899
  },
  {
   "name": "Qairouan",
   "country": "Tunisia",
   "lat": 35.680392,
   "lng": 10.099993,
   "merc_x": 1124326.1,
   "merc_y": 4256732.5,
   "world_x_km": -125.674,
   "world_z_km": -2743.268,
   "modern_population": 144522
  },
  {
   "name": "Le Mans",
   "country": "France",
   "lat": 48.000415,
   "lng": 0.099983,
   "merc_x": 11130.1,
   "merc_y": 6106923.9,
   "world_x_km": -1238.87,
   "world_z_km": -893.076,
   "modern_population": 144515
  },
  {
   "name": "Tuzla",
   "country": "Bosnia and Herzegovina",
   "lat": 44.550471,
   "lng": 18.680038,
   "merc_x": 2079452.3,
   "merc_y": 5551027.8,
   "world_x_km": 829.452,
   "world_z_km": -1448.972,
   "modern_population": 144334
  },
  {
   "name": "Székesfehérvár",
   "country": "Hungary",
   "lat": 47.194676,
   "lng": 18.408065,
   "merc_x": 2049176.4,
   "merc_y": 5973908.2,
   "world_x_km": 799.176,
   "world_z_km": -1026.092,
   "modern_population": 144319
  },
  {
   "name": "Huelva",
   "country": "Spain",
   "lat": 37.250374,
   "lng": -6.929949,
   "merc_x": -771438.4,
   "merc_y": 4474063.4,
   "world_x_km": -2021.438,
   "world_z_km": -2525.937,
   "modern_population": 144174
  },
  {
   "name": "Tizi-Ouzou",
   "country": "Algeria",
   "lat": 36.71171,
   "lng": 4.046144,
   "merc_x": 450414.7,
   "merc_y": 4398998.7,
   "world_x_km": -799.585,
   "world_z_km": -2601.001,
   "modern_population": 144000
  },
  {
   "name": "Ipswich",
   "country": "United Kingdom",
   "lat": 52.070348,
   "lng": 1.169996,
   "merc_x": 130243.4,
   "merc_y": 6812855.3,
   "world_x_km": -1119.757,
   "world_z_km": -187.145,
   "modern_population": 143767
  },
  {
   "name": "Logroño",
   "country": "Spain",
   "lat": 42.470365,
   "lng": -2.429992,
   "merc_x": -270505.5,
   "merc_y": 5231700.3,
   "world_x_km": -1520.505,
   "world_z_km": -1768.3,
   "modern_population": 143698
  },
  {
   "name": "Stara Zagora",
   "country": "Bulgaria",
   "lat": 42.423133,
   "lng": 25.622715,
   "merc_x": 2852307.6,
   "merc_y": 5224575.0,
   "world_x_km": 1602.308,
   "world_z_km": -1775.425,
   "modern_population": 143431
  },
  {
   "name": "Amiens",
   "country": "France",
   "lat": 49.900377,
   "lng": 2.300004,
   "merc_x": 256035.3,
   "merc_y": 6429040.7,
   "world_x_km": -993.965,
   "world_z_km": -570.959,
   "modern_population": 143086
  },
  {
   "name": "Durrës",
   "country": "Albania",
   "lat": 41.3178,
   "lng": 19.448208,
   "merc_x": 2164964.6,
   "merc_y": 5059330.7,
   "world_x_km": 914.965,
   "world_z_km": -1940.669,
   "modern_population": 142432
  },
  {
   "name": "Arnhem",
   "country": "Netherlands",
   "lat": 51.987996,
   "lng": 5.923,
   "merc_x": 659345.3,
   "merc_y": 6797955.3,
   "world_x_km": -590.655,
   "world_z_km": -202.045,
   "modern_population": 141674
  },
  {
   "name": "Peterborough",
   "country": "United Kingdom",
   "lat": 52.58042,
   "lng": -0.249995,
   "merc_x": -27829.3,
   "merc_y": 6905761.0,
   "world_x_km": -1277.829,
   "world_z_km": -94.239,
   "modern_population": 140141
  },
  {
   "name": "Badajoz",
   "country": "Spain",
   "lat": 38.880429,
   "lng": -6.969973,
   "merc_x": -775893.8,
   "merc_y": 4704558.5,
   "world_x_km": -2025.894,
   "world_z_km": -2295.442,
   "modern_population": 140133
  },
  {
   "name": "Bordj Bou Arréridj",
   "country": "Algeria",
   "lat": 36.077709,
   "lng": 4.764662,
   "merc_x": 530399.7,
   "merc_y": 4311319.3,
   "world_x_km": -719.6,
   "world_z_km": -2688.681,
   "modern_population": 140000
  },
  {
   "name": "Bizerte",
   "country": "Tunisia",
   "lat": 37.290423,
   "lng": 9.854995,
   "merc_x": 1097053.0,
   "merc_y": 4479665.7,
   "world_x_km": -152.947,
   "world_z_km": -2520.334,
   "modern_population": 139843
  },
  {
   "name": "Göttingen",
   "country": "Germany",
   "lat": 51.520433,
   "lng": 9.920004,
   "merc_x": 1104289.8,
   "merc_y": 6713873.8,
   "world_x_km": -145.71,
   "world_z_km": -286.126,
   "modern_population": 139419
  },
  {
   "name": "Bremerhaven",
   "country": "Germany",
   "lat": 53.550438,
   "lng": 8.579983,
   "merc_x": 955119.3,
   "merc_y": 7085470.2,
   "world_x_km": -294.881,
   "world_z_km": 85.47,
   "modern_population": 137751
  },
  {
   "name": "Oulu",
   "country": "Finland",
   "lat": 64.999998,
   "lng": 25.470011,
   "merc_x": 2835308.7,
   "merc_y": 9608371.0,
   "world_x_km": 1585.309,
   "world_z_km": 2608.371,
   "modern_population": 136752
  },
  {
   "name": "Baia Mare",
   "country": "Romania",
   "lat": 47.659454,
   "lng": 23.579067,
   "merc_x": 2624809.7,
   "merc_y": 6050386.0,
   "world_x_km": 1374.81,
   "world_z_km": -949.614,
   "modern_population": 136553
  },
  {
   "name": "León",
   "country": "Spain",
   "lat": 42.579971,
   "lng": -5.570007,
   "merc_x": -620050.3,
   "merc_y": 5248256.1,
   "world_x_km": -1870.05,
   "world_z_km": -1751.744,
   "modern_population": 136227
  },
  {
   "name": "Győr",
   "country": "Hungary",
   "lat": 47.700356,
   "lng": 17.630024,
   "merc_x": 1962565.3,
   "merc_y": 6057148.7,
   "world_x_km": 712.565,
   "world_z_km": -942.851,
   "modern_population": 136081
  },
  {
   "name": "Orsha",
   "country": "Belarus",
   "lat": 54.515315,
   "lng": 30.421543,
   "merc_x": 3386510.7,
   "merc_y": 7268361.2,
   "world_x_km": 2136.511,
   "world_z_km": 268.361,
   "modern_population": 135206
  },
  {
   "name": "Souk Ahras",
   "country": "Algeria",
   "lat": 36.290381,
   "lng": 7.949995,
   "merc_x": 884989.4,
   "merc_y": 4340651.3,
   "world_x_km": -365.011,
   "world_z_km": -2659.349,
   "modern_population": 134947
  },
  {
   "name": "Ravenna",
   "country": "Italy",
   "lat": 44.420375,
   "lng": 12.220019,
   "merc_x": 1360326.3,
   "merc_y": 5530728.3,
   "world_x_km": 110.326,
   "world_z_km": -1469.272,
   "modern_population": 134631
  },
  {
   "name": "'s-Hertogenbosch",
   "country": "Netherlands",
   "lat": 51.683337,
   "lng": 5.316661,
   "merc_x": 591848.0,
   "merc_y": 6743070.0,
   "world_x_km": -658.152,
   "world_z_km": -256.93,
   "modern_population": 134520
  },
  {
   "name": "Šiauliai",
   "country": "Lithuania",
   "lat": 55.938639,
   "lng": 23.325026,
   "merc_x": 2596530.0,
   "merc_y": 7546210.1,
   "world_x_km": 1346.53,
   "world_z_km": 546.21,
   "modern_population": 133528
  },
  {
   "name": "Uppsala",
   "country": "Sweden",
   "lat": 59.860053,
   "lng": 17.639998,
   "merc_x": 1963675.6,
   "merc_y": 8368645.9,
   "world_x_km": 713.676,
   "world_z_km": 1368.646,
   "modern_population": 133117
  },
  {
   "name": "Opole",
   "country": "Poland",
   "lat": 50.68498,
   "lng": 17.93135,
   "merc_x": 1996108.8,
   "merc_y": 6565758.4,
   "world_x_km": 746.109,
   "world_z_km": -434.242,
   "modern_population": 131412
  },
  {
   "name": "Ferrara",
   "country": "Italy",
   "lat": 44.850427,
   "lng": 11.609927,
   "merc_x": 1292411.2,
   "merc_y": 5598004.9,
   "world_x_km": 42.411,
   "world_z_km": -1401.995,
   "modern_population": 130992
  },
  {
   "name": "Buzău",
   "country": "Romania",
   "lat": 45.156506,
   "lng": 26.806519,
   "merc_x": 2984088.0,
   "merc_y": 5646193.9,
   "world_x_km": 1734.088,
   "world_z_km": -1353.806,
   "modern_population": 130954
  },
  {
   "name": "Pinsk",
   "country": "Belarus",
   "lat": 52.127863,
   "lng": 26.094056,
   "merc_x": 2904777.0,
   "merc_y": 6823277.8,
   "world_x_km": 1654.777,
   "world_z_km": -176.722,
   "modern_population": 130777
  },
  {
   "name": "Nikopol",
   "country": "Ukraine",
   "lat": 47.566591,
   "lng": 34.40621,
   "merc_x": 3830081.8,
   "merc_y": 6035051.5,
   "world_x_km": 2580.082,
   "world_z_km": -964.948,
   "modern_population": 130500
  },
  {
   "name": "Larissa",
   "country": "Greece",
   "lat": 39.630409,
   "lng": 22.420016,
   "merc_x": 2495784.8,
   "merc_y": 4812378.8,
   "world_x_km": 1245.785,
   "world_z_km": -2187.621,
   "modern_population": 128758
  },
  {
   "name": "Karabük",
   "country": "Turkey",
   "lat": 41.200003,
   "lng": 32.600015,
   "merc_x": 3629017.1,
   "merc_y": 5041887.0,
   "world_x_km": 2379.017,
   "world_z_km": -1958.113,
   "modern_population": 128564
  },
  {
   "name": "Cambridge",
   "country": "United Kingdom",
   "lat": 52.200391,
   "lng": 0.116623,
   "merc_x": 12982.4,
   "merc_y": 6836440.1,
   "world_x_km": -1237.018,
   "world_z_km": -163.56,
   "modern_population": 128488
  },
  {
   "name": "Besançon",
   "country": "France",
   "lat": 47.229997,
   "lng": 6.030009,
   "merc_x": 671257.5,
   "merc_y": 5979696.6,
   "world_x_km": -578.742,
   "world_z_km": -1020.303,
   "modern_population": 128426
  },
  {
   "name": "Elbląg",
   "country": "Poland",
   "lat": 54.18996,
   "lng": 19.402681,
   "merc_x": 2159896.6,
   "merc_y": 7206214.8,
   "world_x_km": 909.897,
   "world_z_km": 206.215,
   "modern_population": 127558
  },
  {
   "name": "Panevežys",
   "country": "Lithuania",
   "lat": 55.74002,
   "lng": 24.370026,
   "merc_x": 2712858.9,
   "merc_y": 7506834.1,
   "world_x_km": 1462.859,
   "world_z_km": 506.834,
   "modern_population": 127405
  },
  {
   "name": "Edirne",
   "country": "Turkey",
   "lat": 41.67044,
   "lng": 26.569996,
   "merc_x": 2957758.4,
   "merc_y": 5111740.1,
   "world_x_km": 1707.758,
   "world_z_km": -1888.26,
   "modern_population": 126470
  },
  {
   "name": "Tarragona",
   "country": "Spain",
   "lat": 41.12037,
   "lng": 1.249991,
   "merc_x": 139148.4,
   "merc_y": 5030112.5,
   "world_x_km": -1110.852,
   "world_z_km": -1969.888,
   "modern_population": 126291
  },
  {
   "name": "Leeuwarden",
   "country": "Netherlands",
   "lat": 53.250379,
   "lng": 5.783357,
   "merc_x": 643800.4,
   "merc_y": 7029446.2,
   "world_x_km": -606.2,
   "world_z_km": 29.446,
   "modern_population": 125778
  },
  {
   "name": "Zlín",
   "country": "Czechia",
   "lat": 49.230418,
   "lng": 17.650023,
   "merc_x": 1964791.6,
   "merc_y": 6314049.3,
   "world_x_km": 714.792,
   "world_z_km": -685.951,
   "modern_population": 124610
  },
  {
   "name": "Drohobych",
   "country": "Ukraine",
   "lat": 49.344364,
   "lng": 23.499382,
   "merc_x": 2615939.2,
   "merc_y": 6333496.0,
   "world_x_km": 1365.939,
   "world_z_km": -666.504,
   "modern_population": 124269
  },
  {
   "name": "Siracusa",
   "country": "Italy",
   "lat": 37.070359,
   "lng": 15.289961,
   "merc_x": 1702070.7,
   "merc_y": 4448918.5,
   "world_x_km": 452.071,
   "world_z_km": -2551.082,
   "modern_population": 123657
  },
  {
   "name": "Guelma",
   "country": "Algeria",
   "lat": 36.466002,
   "lng": 7.427998,
   "merc_x": 826881.0,
   "merc_y": 4364933.4,
   "world_x_km": -423.119,
   "world_z_km": -2635.067,
   "modern_population": 123590
  },
  {
   "name": "Maastricht",
   "country": "Netherlands",
   "lat": 50.852997,
   "lng": 5.677003,
   "merc_x": 631961.1,
   "merc_y": 6595331.7,
   "world_x_km": -618.039,
   "world_z_km": -404.668,
   "modern_population": 122378
  },